City_ID,City,Country,Date,Lat,Lng,Temp,Min Temp,Max Temp,Current Description,Current Details,Humidity,Cloudiness,Wind Speed
0,Dikson,RU,2021-03-16 23:14:38,73.5069,80.5464,-28.35,-28.35,-28.35,Clouds,broken clouds,99,61,3.94
1,Cape Town,ZA,2021-03-16 23:13:29,-33.9258,18.4232,63.18,62.6,64.0,Clear,clear sky,77,0,14.97
2,Molfetta,IT,2021-03-16 23:14:38,41.2002,16.5975,48.09,46.4,50.0,Clouds,scattered clouds,66,40,6.91
3,Kodiak,US,2021-03-16 23:14:38,57.79,-152.4072,35.6,35.6,35.6,Clear,clear sky,44,1,10.36
4,Kutum,SD,2021-03-16 23:14:39,14.2,24.6667,71.31,71.31,71.31,Clear,clear sky,11,0,7.76
5,Oga,IT,2021-03-16 23:14:39,46.4631,10.347,26.15,19.4,34.0,Snow,light snow,93,75,1.14
6,Carlyle,US,2021-03-16 23:14:39,38.6103,-89.3726,52.54,51.8,54.0,Haze,haze,82,1,3.67
7,Busselton,AU,2021-03-16 23:14:40,-33.65,115.3333,65.73,65.73,65.73,Clear,clear sky,58,0,2.1
8,Codrington,AU,2021-03-16 23:14:40,-38.2667,141.9667,66.56,66.56,66.56,Clear,clear sky,67,0,8.37
9,Ushuaia,AR,2021-03-16 23:11:26,-54.8,-68.3,44.6,44.6,44.6,Clouds,broken clouds,65,75,23.02
10,Cayenne,GF,2021-03-16 23:14:41,4.9333,-52.3333,78.73,77.0,80.01,Clouds,scattered clouds,83,31,2.3
11,Rikitea,PF,2021-03-16 23:14:21,-23.1203,-134.9692,80.49,80.49,80.49,Clouds,broken clouds,74,68,8.61
12,Victoria,HK,2021-03-16 23:13:08,22.2855,114.1577,70.16,64.0,73.0,Clear,clear sky,89,5,6.96
13,Mataura,NZ,2021-03-16 23:14:41,-46.1927,168.8643,55.99,55.99,55.99,Clouds,overcast clouds,71,100,15.99
14,Sobolevo,RU,2021-03-16 23:14:42,54.4299,31.8996,31.68,31.68,31.68,Snow,light snow,96,100,5.66
15,Airai,TL,2021-03-16 23:14:42,-8.9266,125.4092,64.15,64.15,64.15,Clouds,scattered clouds,81,47,1.23
16,Albany,US,2021-03-16 23:14:23,42.6001,-73.9662,31.3,30.0,32.0,Clouds,overcast clouds,29,99,1.01
17,Saskylakh,RU,2021-03-16 23:14:42,71.9167,114.0833,-42.07,-42.07,-42.07,Clouds,overcast clouds,95,88,8.57
18,Luderitz,NA,2021-03-16 23:14:43,-26.6481,15.1594,62.78,62.78,62.78,Clear,clear sky,84,0,11.45
19,Merauke,ID,2021-03-16 23:14:43,-8.4667,140.3333,82.45,82.45,82.45,Clouds,overcast clouds,78,100,5.12
20,Lerwick,GB,2021-03-16 23:14:43,60.1545,-1.1494,46.4,46.4,46.4,Clouds,scattered clouds,81,40,19.57
21,Hithadhoo,MV,2021-03-16 23:14:44,-0.6,73.0833,81.99,81.99,81.99,Clouds,broken clouds,70,73,5.64
22,Barrow,US,2021-03-16 23:14:44,71.2906,-156.7887,-0.4,-0.4,-0.4,Snow,snow,71,90,20.71
23,Avarua,CK,2021-03-16 23:14:44,-21.2078,-159.775,84.2,84.2,84.2,Clouds,scattered clouds,74,40,9.22
24,Faanui,PF,2021-03-16 23:14:45,-16.4833,-151.75,82.6,82.6,82.6,Clouds,few clouds,72,19,10.69
25,Beringovskiy,RU,2021-03-16 23:14:45,63.05,179.3167,11.48,11.48,11.48,Clouds,broken clouds,84,81,13.38
26,Punta Arenas,CL,2021-03-16 23:14:45,-53.15,-70.9167,48.11,48.0,48.2,Clear,clear sky,71,0,43.73
27,Quelimane,MZ,2021-03-16 23:14:45,-17.8786,36.8883,80.6,80.6,80.6,Clear,clear sky,83,0,1.3
28,Gat,IL,2021-03-16 23:14:46,31.61,34.7642,54.79,52.0,57.0,Clear,clear sky,100,2,1.01
29,Plettenberg Bay,ZA,2021-03-16 23:14:46,-34.0527,23.3716,63.09,63.09,63.09,Clouds,broken clouds,86,68,3.67
30,Moron,AR,2021-03-16 23:14:46,-34.6534,-58.6198,69.98,69.01,71.01,Clouds,overcast clouds,94,90,1.14
31,Japura,ID,2021-03-16 23:14:47,-0.3167,102.35,72.57,72.57,72.57,Clouds,overcast clouds,98,94,1.39
32,Butaritari,KI,2021-03-16 23:14:47,3.0707,172.7902,81.05,81.05,81.05,Rain,moderate rain,77,63,13.24
33,Lorengau,PG,2021-03-16 23:14:47,-2.0226,147.2712,84.43,84.43,84.43,Clouds,overcast clouds,69,97,5.86
34,Kaeo,NZ,2021-03-16 23:14:48,-35.1,173.7833,69.01,69.01,69.01,Clouds,scattered clouds,63,41,5.01
35,Chokurdakh,RU,2021-03-16 23:14:48,70.6333,147.9167,-21.98,-21.98,-21.98,Clear,clear sky,84,0,8.52
36,Zorritos,PE,2021-03-16 23:14:48,-3.6805,-80.6782,86.0,86.0,86.0,Clouds,broken clouds,66,75,3.44
37,Port Elizabeth,ZA,2021-03-16 23:14:49,-33.918,25.5701,64.4,64.4,64.4,Clouds,broken clouds,88,75,1.14
38,Bandrele,YT,2021-03-16 23:14:49,-12.9067,45.1914,78.8,78.8,78.8,Clear,clear sky,89,0,3.44
39,Alofi,NU,2021-03-16 23:14:49,-19.0595,-169.9187,86.0,86.0,86.0,Clouds,broken clouds,70,75,8.05
40,Ulaangom,MN,2021-03-16 23:14:50,49.9811,92.0667,4.33,4.33,4.33,Clouds,overcast clouds,90,100,1.48
41,Kruisfontein,ZA,2021-03-16 23:14:50,-34.0033,24.7314,59.0,59.0,59.0,Clouds,broken clouds,92,61,1.01
42,Vaini,TO,2021-03-16 23:14:50,-21.2,-175.2,82.4,82.4,82.4,Rain,light rain,74,20,10.36
43,Guatire,VE,2021-03-16 23:14:51,10.4762,-66.5427,82.4,82.4,82.4,Clouds,scattered clouds,74,40,4.61
44,Nicolas Bravo,MX,2021-03-16 23:14:51,18.45,-88.9167,83.46,82.99,84.2,Clouds,scattered clouds,65,40,18.41
45,Bambous Virieux,MU,2021-03-16 23:14:52,-20.3428,57.7575,77.97,77.0,78.8,Rain,light rain,78,75,10.36
46,Ulaanbaatar,MN,2021-03-16 23:11:37,47.9077,106.8832,14.0,14.0,14.0,Clear,clear sky,79,0,2.24
47,Bethel,US,2021-03-16 23:14:52,41.3712,-73.414,31.64,30.99,32.0,Clouds,overcast clouds,52,100,4.29
48,Coahuayana,MX,2021-03-16 23:14:53,18.7333,-103.6833,78.8,78.8,78.8,Clouds,few clouds,57,20,8.05
49,Mandalgovi,MN,2021-03-16 23:14:53,45.7625,106.2708,20.95,20.95,20.95,Snow,light snow,60,96,5.77
50,Turriff,GB,2021-03-16 23:14:53,57.5384,-2.4593,42.01,42.01,42.01,Clouds,scattered clouds,71,47,3.0
51,Pedernales,DO,2021-03-16 23:14:53,18.0384,-71.744,78.57,78.57,78.57,Clouds,few clouds,67,20,6.26
52,Tuktoyaktuk,CA,2021-03-16 23:14:54,69.4541,-133.0374,-13.0,-13.0,-13.0,Clouds,few clouds,77,20,3.44
53,Cienaga,CO,2021-03-16 23:14:54,11.007,-74.2476,83.84,82.0,86.0,Clouds,scattered clouds,70,27,15.99
54,Ban Nahin,LA,2021-03-16 23:14:54,18.2418,104.2122,75.97,75.97,75.97,Clear,clear sky,57,9,2.62
55,Garoua,CM,2021-03-16 23:14:55,9.3,13.4,83.39,83.39,83.39,Clouds,broken clouds,29,83,4.43
56,Lagoa,PT,2021-03-16 23:14:55,39.05,-27.9833,59.95,59.95,59.95,Clouds,overcast clouds,89,96,27.2
57,Batticaloa,LK,2021-03-16 23:14:55,7.7102,81.6924,79.32,79.32,79.32,Clouds,scattered clouds,76,36,5.82
58,Zahirabad,IN,2021-03-16 23:13:13,17.6833,77.6167,71.65,71.65,71.65,Clear,clear sky,39,0,8.72
59,Arzgir,RU,2021-03-16 23:14:56,45.3728,44.2206,39.42,39.42,39.42,Clouds,overcast clouds,85,88,5.3
60,Cairns,AU,2021-03-16 23:14:56,-16.9167,145.7667,84.24,82.4,86.0,Clouds,overcast clouds,69,90,3.44
61,Ancud,CL,2021-03-16 23:14:57,-41.8697,-73.8203,51.91,46.99,57.2,Clear,clear sky,54,0,11.5
62,Namibe,AO,2021-03-16 23:14:57,-15.1961,12.1522,76.05,76.05,76.05,Clouds,overcast clouds,80,99,4.27
63,Jiazi,CN,2021-03-16 23:14:57,22.8779,116.067,70.5,70.5,70.5,Clear,clear sky,86,0,3.87
64,San Jeronimo,PE,2021-03-16 23:14:58,-11.9472,-75.2829,52.93,52.93,52.93,Clouds,overcast clouds,84,100,2.28
65,Bluff,NZ,2021-03-16 23:14:45,-46.6,168.3333,55.99,55.99,55.99,Clouds,broken clouds,71,77,15.99
66,Boguchany,RU,2021-03-16 23:14:58,58.3814,97.4531,7.54,7.54,7.54,Clouds,overcast clouds,97,100,4.94
67,Klaksvik,FO,2021-03-16 23:14:59,62.2266,-6.589,44.6,44.6,44.6,Clouds,broken clouds,93,75,19.57
68,Touros,BR,2021-03-16 23:14:59,-5.1989,-35.4608,80.6,80.6,80.6,Clouds,scattered clouds,74,40,11.5
69,Saint-Philippe,RE,2021-03-16 23:14:59,-21.3585,55.7679,72.91,69.01,75.2,Clear,clear sky,64,0,5.75
70,Pevek,RU,2021-03-16 23:15:00,69.7008,170.3133,-6.54,-6.54,-6.54,Clouds,overcast clouds,94,100,12.57
71,Juneau,US,2021-03-16 23:14:15,58.3019,-134.4197,31.15,25.0,37.4,Snow,snow,75,90,10.36
72,Atuona,PF,2021-03-16 23:15:00,-9.8,-139.0333,80.46,80.46,80.46,Clouds,few clouds,66,13,10.33
73,Cabo San Lucas,MX,2021-03-16 23:12:16,22.8909,-109.9124,79.05,78.01,80.6,Clear,clear sky,34,1,5.75
74,Vila Franca Do Campo,PT,2021-03-16 23:15:01,37.7167,-25.4333,59.0,59.0,59.0,Clouds,broken clouds,67,75,14.97
75,Georgetown,MY,2021-03-16 23:13:21,5.4112,100.3354,78.51,77.0,80.6,Clouds,few clouds,83,20,2.3
76,Arraial Do Cabo,BR,2021-03-16 23:15:01,-22.9661,-42.0278,77.56,77.56,77.56,Clear,clear sky,83,0,20.11
77,Guaranda,EC,2021-03-16 23:15:02,-1.6,-79.0,52.23,52.23,52.23,Rain,moderate rain,94,100,1.28
78,Jamestown,US,2021-03-16 23:15:02,42.097,-79.2353,39.54,39.2,39.99,Clear,clear sky,70,1,4.76
79,Hun,LY,2021-03-16 23:15:02,29.1268,15.9477,55.54,55.54,55.54,Clear,clear sky,37,1,3.47
80,Hobart,AU,2021-03-16 23:12:10,-42.8794,147.3294,59.31,57.0,62.01,Clouds,few clouds,67,20,8.05
81,Pisco,PE,2021-03-16 23:15:03,-13.7,-76.2167,75.11,75.0,75.2,Clouds,broken clouds,64,75,20.71
82,Ribeira Grande,PT,2021-03-16 23:15:03,38.5167,-28.7,61.84,61.84,61.84,Clouds,overcast clouds,90,98,25.88
83,Nara,JP,2021-03-16 23:15:04,34.6851,135.8049,51.73,50.0,53.01,Clouds,few clouds,76,20,9.22
84,Pimentel,PE,2021-03-16 23:15:04,-6.8367,-79.9342,76.41,75.99,77.0,Clear,clear sky,69,0,19.57
85,Mar Del Plata,AR,2021-03-16 23:14:10,-38.0023,-57.5575,65.34,64.0,66.2,Rain,heavy intensity rain,94,90,9.22
86,Murray,US,2021-03-16 23:10:17,40.6669,-111.888,51.53,46.0,55.4,Clouds,broken clouds,50,75,13.8
87,Oyo,NG,2021-03-16 23:15:05,7.85,3.9333,79.0,79.0,79.0,Clouds,overcast clouds,74,100,6.51
88,Dzhebariki-Khaya,RU,2021-03-16 23:15:05,62.2167,135.8,-3.86,-3.86,-3.86,Clear,clear sky,87,0,2.46
89,Sept-Iles,CA,2021-03-16 23:13:02,50.2001,-66.3821,15.93,15.01,17.01,Clouds,few clouds,48,20,9.22
90,Bathsheba,BB,2021-03-16 23:15:05,13.2167,-59.5167,78.8,78.8,78.8,Clouds,scattered clouds,65,40,13.8
91,Yilan,TW,2021-03-16 23:15:06,24.757,121.753,70.88,69.01,73.0,Clouds,scattered clouds,99,47,2.15
92,Portland,US,2021-03-16 23:10:32,45.5234,-122.6762,52.56,50.0,55.0,Clouds,scattered clouds,37,40,2.84
93,Castro,BR,2021-03-16 23:15:06,-24.7911,-50.0119,66.13,66.13,66.13,Rain,moderate rain,89,11,3.71
94,Nishihara,JP,2021-03-16 23:15:06,26.1842,127.7558,69.26,68.0,69.8,Clouds,few clouds,94,20,3.4
95,Hermanus,ZA,2021-03-16 23:13:17,-34.4187,19.2345,57.99,57.99,57.99,Clouds,few clouds,89,16,11.88
96,Lompoc,US,2021-03-16 23:15:07,34.6391,-120.4579,52.36,46.0,55.4,Clouds,broken clouds,62,75,18.41
97,Qaanaaq,GL,2021-03-16 23:15:08,77.484,-69.3632,1.98,1.98,1.98,Clouds,overcast clouds,74,98,2.64
98,Puerto Escondido,MX,2021-03-16 23:15:08,15.85,-97.0667,84.2,84.2,84.2,Clouds,few clouds,70,20,11.5
99,Taltal,CL,2021-03-16 23:15:08,-25.4,-70.4833,65.75,65.75,65.75,Clouds,few clouds,87,24,4.9
100,Sao Paulo De Olivenca,BR,2021-03-16 23:15:08,-3.3783,-68.8725,76.59,76.59,76.59,Clouds,overcast clouds,93,100,1.14
101,Kota Kinabalu,MY,2021-03-16 23:15:09,5.9749,116.0724,77.0,77.0,77.0,Clouds,few clouds,88,20,3.83
102,Newport,GB,2021-03-16 23:15:09,51.5877,-2.9984,45.36,44.01,46.0,Clouds,scattered clouds,76,30,2.64
103,Vestmannaeyjar,IS,2021-03-16 23:15:09,63.4427,-20.2734,44.87,44.87,44.87,Clouds,overcast clouds,94,100,16.55
104,Lebu,CL,2021-03-16 23:15:10,-37.6167,-73.65,56.68,56.68,56.68,Clouds,overcast clouds,87,85,12.64
105,Maloy,NO,2021-03-16 23:15:10,61.9353,5.1136,36.59,36.0,37.4,Rain,light rain,70,90,9.22
106,Husavik,IS,2021-03-16 23:15:10,66.0449,-17.3389,37.4,37.4,37.4,Clouds,few clouds,75,20,4.61
107,Cap Malheureux,MU,2021-03-16 23:15:11,-19.9842,57.6142,77.0,77.0,77.0,Clouds,overcast clouds,83,99,3.0
108,Kosa,RU,2021-03-16 23:15:11,59.9445,54.9977,29.17,29.17,29.17,Clouds,overcast clouds,94,100,9.84
109,Chabahar,IR,2021-03-16 23:15:11,25.2919,60.643,72.54,72.54,72.54,Clouds,scattered clouds,72,39,8.12
110,La Roche-Sur-Yon,FR,2021-03-16 23:15:12,46.6667,-1.4333,50.0,50.0,50.0,Clouds,broken clouds,93,75,10.36
111,Bredasdorp,ZA,2021-03-16 23:15:12,-34.5322,20.0403,57.2,57.2,57.2,Clouds,few clouds,94,13,1.14
112,Ransang,PH,2021-03-16 23:15:12,8.9603,117.5828,78.6,78.6,78.6,Clear,clear sky,84,2,3.2
113,Ilulissat,GL,2021-03-16 23:15:13,69.2167,-51.1,10.4,10.4,10.4,Snow,light snow,72,75,5.75
114,Puerto Ayora,EC,2021-03-16 23:15:13,-0.7393,-90.3518,80.91,80.01,82.4,Clouds,few clouds,78,20,9.22
115,Aykhal,RU,2021-03-16 23:15:13,66.0,111.5,-28.93,-28.93,-28.93,Clouds,broken clouds,95,62,6.58
116,La Ronge,CA,2021-03-16 23:15:14,55.1001,-105.2842,41.0,41.0,41.0,Clear,clear sky,30,0,8.05
117,Lavumisa,SZ,2021-03-16 23:15:14,-27.31,31.892,71.24,71.24,71.24,Rain,light rain,96,83,1.88
118,Santa Comba,ES,2021-03-16 23:15:14,43.0331,-8.8093,51.58,48.0,55.0,Clouds,few clouds,63,20,3.0
119,Vechta,DE,2021-03-16 23:15:15,52.7167,8.2833,36.82,36.0,37.99,Clouds,broken clouds,84,84,1.01
120,Macia,MZ,2021-03-16 23:15:15,-25.0269,33.0989,70.12,70.12,70.12,Clear,clear sky,94,0,3.31
121,Port Alfred,ZA,2021-03-16 23:15:15,-33.5906,26.891,66.0,66.0,66.0,Clouds,overcast clouds,90,93,8.46
122,Santa Cruz,BO,2021-03-16 23:15:16,-17.8,-63.1667,78.8,78.8,78.8,Clouds,broken clouds,78,75,11.5
123,Hofn,IS,2021-03-16 23:15:16,64.2539,-15.2082,42.17,42.17,42.17,Clouds,overcast clouds,73,85,1.28
124,Mareeba,AU,2021-03-16 23:15:16,-17.0,145.4333,80.92,75.99,86.0,Clouds,overcast clouds,69,88,3.44
125,Lancaster,US,2021-03-16 23:15:17,40.2504,-76.2499,37.08,35.01,39.2,Clouds,overcast clouds,60,90,10.36
126,Bandarbeyla,SO,2021-03-16 23:15:17,9.4942,50.8122,77.29,77.29,77.29,Clouds,broken clouds,81,60,11.23
127,Khuzdar,PK,2021-03-16 23:15:17,27.7384,66.6434,61.79,61.79,61.79,Clouds,overcast clouds,26,92,4.9
128,Bengkulu,ID,2021-03-16 23:15:18,-3.8004,102.2655,74.3,74.3,74.3,Clouds,broken clouds,84,82,4.29
129,Trinidad,BO,2021-03-16 23:15:18,-14.8333,-64.9,84.2,84.2,84.2,Clouds,broken clouds,79,75,3.24
130,Iqaluit,CA,2021-03-16 23:15:18,63.7506,-68.5145,-14.8,-14.8,-14.8,Clouds,broken clouds,70,75,2.51
131,Bairiki,KI,2021-03-16 23:15:19,1.3292,172.9752,86.0,86.0,86.0,Clouds,few clouds,70,20,8.05
132,Nabire,ID,2021-03-16 23:15:19,-3.3667,135.4833,78.82,78.82,78.82,Clouds,broken clouds,80,70,2.46
133,Wagar,SD,2021-03-16 23:15:19,16.1525,36.2032,77.05,77.05,77.05,Clear,clear sky,57,0,9.95
134,Salou,ES,2021-03-16 23:15:20,41.0766,1.1416,50.88,44.6,55.0,Clear,clear sky,93,0,2.3
135,Kormilovka,RU,2021-03-16 23:15:20,55.0026,74.1028,14.0,14.0,14.0,Clouds,broken clouds,85,75,6.71
136,Yellowknife,CA,2021-03-16 23:13:25,62.456,-114.3525,13.15,12.0,14.0,Clouds,few clouds,52,20,8.05
137,Magistralnyy,RU,2021-03-16 23:15:21,56.1725,107.4458,7.63,7.63,7.63,Clouds,overcast clouds,90,88,3.18
138,Clyde River,CA,2021-03-16 23:15:21,70.4692,-68.5914,-18.4,-18.4,-18.4,Clouds,few clouds,69,20,14.97
139,Srednekolymsk,RU,2021-03-16 23:15:22,67.45,153.6833,-14.58,-14.58,-14.58,Clear,clear sky,87,0,5.03
140,Boulder City,US,2021-03-16 23:15:22,35.9786,-114.8325,59.63,57.2,62.01,Clear,clear sky,33,1,5.75
141,Saldanha,ZA,2021-03-16 23:15:22,-33.0117,17.9442,60.8,60.8,60.8,Clear,clear sky,82,0,3.44
142,Ambilobe,MG,2021-03-16 23:15:23,-13.2,49.05,73.53,73.53,73.53,Clouds,overcast clouds,94,100,1.39
143,Khani,GE,2021-03-16 23:15:23,41.9563,42.9566,48.2,48.2,48.2,Rain,light rain,93,90,6.91
144,Ahipara,NZ,2021-03-16 23:15:24,-35.1667,173.1667,66.72,66.72,66.72,Clouds,few clouds,62,11,9.84
145,East London,ZA,2021-03-16 23:15:24,-33.0153,27.9116,70.14,70.14,70.14,Clouds,broken clouds,74,83,5.66
146,Ushtobe,KZ,2021-03-16 23:15:24,45.2514,77.9838,22.98,22.98,22.98,Clouds,few clouds,71,11,6.89
147,Killarney,IE,2021-03-16 23:15:25,52.05,-9.5167,44.69,44.69,44.69,Clouds,scattered clouds,91,50,2.06
148,Yar-Sale,RU,2021-03-16 23:15:25,66.8333,70.8333,17.8,17.8,17.8,Snow,light snow,96,100,4.38
149,Kikwit,CD,2021-03-16 23:15:25,-5.041,18.8162,70.47,70.47,70.47,Rain,moderate rain,96,100,2.21
150,Poum,NC,2021-03-16 23:15:25,-20.2333,164.0167,78.85,78.85,78.85,Clear,clear sky,74,5,4.36
151,Thompson,CA,2021-03-16 23:15:26,55.7435,-97.8558,32.0,32.0,32.0,Clouds,few clouds,32,20,11.5
152,Igrim,RU,2021-03-16 23:15:26,63.1906,64.4162,18.97,18.97,18.97,Clouds,overcast clouds,94,92,6.02
153,Mahebourg,MU,2021-03-16 23:15:26,-20.4081,57.7,78.8,78.8,78.8,Rain,light rain,78,75,10.36
154,Mitsamiouli,KM,2021-03-16 23:15:27,-11.3847,43.2844,81.77,81.77,81.77,Clear,clear sky,70,0,4.92
155,Jamalpur,BD,2021-03-16 23:15:27,24.9167,89.9333,66.88,66.88,66.88,Clear,clear sky,36,0,5.23
156,Caravelas,BR,2021-03-16 23:15:28,-17.7125,-39.2481,77.92,77.92,77.92,Clouds,scattered clouds,81,39,8.63
157,Hilo,US,2021-03-16 23:15:28,19.7297,-155.09,74.25,69.01,78.8,Rain,light rain,69,90,9.22
158,Cherskiy,RU,2021-03-16 23:15:29,68.75,161.3,-20.24,-20.24,-20.24,Clouds,overcast clouds,95,100,5.59
159,Tautira,PF,2021-03-16 23:15:29,-17.7333,-149.15,89.6,89.6,89.6,Rain,moderate rain,58,75,6.91
160,Lethem,GY,2021-03-16 23:15:29,3.3803,-59.7968,83.64,83.64,83.64,Clouds,overcast clouds,62,92,8.28
161,Kaura Namoda,NG,2021-03-16 23:15:30,12.5898,6.5779,79.9,79.9,79.9,Clouds,broken clouds,23,68,4.36
162,Banjar,ID,2021-03-16 23:15:30,-8.19,114.9675,77.0,77.0,77.0,Clouds,few clouds,88,20,3.44
163,Nargana,PA,2021-03-16 23:15:30,9.4428,-78.5906,79.75,79.75,79.75,Clouds,few clouds,84,13,11.34
164,Bahia Blanca,AR,2021-03-16 23:11:50,-38.7196,-62.2724,66.76,66.76,66.76,Clouds,overcast clouds,82,100,20.51
165,Nikolayevsk-Na-Amure,RU,2021-03-16 23:15:31,53.1406,140.73,13.01,13.01,13.01,Clouds,overcast clouds,76,100,7.34
166,Comacchio,IT,2021-03-16 23:15:31,44.6975,12.1858,43.52,43.0,44.6,Clear,clear sky,49,1,3.44
167,Kasamwa,TZ,2021-03-16 23:15:32,-2.85,32.4333,67.51,67.51,67.51,Clouds,overcast clouds,84,94,3.29
168,Paamiut,GL,2021-03-16 23:15:32,61.994,-49.6678,18.59,18.59,18.59,Clouds,overcast clouds,86,100,17.58
169,Alice Springs,AU,2021-03-16 23:15:32,-23.7,133.8833,60.8,60.8,60.8,Clouds,overcast clouds,67,89,4.61
170,Pangai,TO,2021-03-16 23:15:33,-19.8,-174.35,84.2,84.2,84.2,Clouds,scattered clouds,79,40,4.61
171,Formosa Do Rio Preto,BR,2021-03-16 23:15:33,-11.0483,-45.1931,72.27,72.27,72.27,Clear,clear sky,79,9,2.13
172,Lake City,US,2021-03-16 23:15:33,30.1897,-82.6393,78.26,77.0,78.8,Clouds,scattered clouds,50,40,10.36
173,Half Moon Bay,US,2021-03-16 23:15:34,37.4636,-122.4286,53.31,50.0,55.99,Clouds,scattered clouds,66,40,9.22
174,Tezu,IN,2021-03-16 23:15:34,27.9167,96.1667,69.42,69.42,69.42,Clear,clear sky,44,0,4.18
175,Cidreira,BR,2021-03-16 23:15:34,-30.1811,-50.2056,76.98,76.98,76.98,Clouds,overcast clouds,86,89,19.33
176,Antigonish,CA,2021-03-16 23:15:35,45.6169,-61.9986,14.43,14.0,15.01,Clouds,overcast clouds,71,100,5.01
177,Kahului,US,2021-03-16 23:15:35,20.8947,-156.47,73.09,69.01,78.8,Rain,light rain,73,40,17.27
178,Praya,CV,2021-03-16 23:15:12,14.9215,-23.5087,69.8,69.8,69.8,Clear,clear sky,73,0,13.8
179,Polson,US,2021-03-16 23:15:36,47.6936,-114.1632,52.0,52.0,52.0,Clouds,scattered clouds,54,45,2.51
180,Amapa,BR,2021-03-16 23:15:36,1.0,-52.0,72.93,72.93,72.93,Clouds,overcast clouds,97,98,2.35
181,Coquimbo,CL,2021-03-16 23:13:07,-29.9533,-71.3436,64.4,64.4,64.4,Clear,clear sky,72,0,10.36
182,Eureka,US,2021-03-16 23:15:16,40.8021,-124.1637,49.77,46.4,51.01,Clear,clear sky,57,1,10.36
183,Kingaroy,AU,2021-03-16 23:15:37,-26.5333,151.8333,62.6,62.6,62.6,Rain,light rain,100,75,6.91
184,Tasiilaq,GL,2021-03-16 23:15:37,65.6145,-37.6368,26.6,26.6,26.6,Snow,snow,93,90,31.07
185,Mogadishu,SO,2021-03-16 23:15:37,2.0371,45.3438,79.77,79.77,79.77,Clouds,broken clouds,83,77,15.68
186,Zimapan,MX,2021-03-16 23:15:38,20.75,-99.35,82.53,82.53,82.53,Clear,clear sky,19,0,5.61
187,Valparaiso,CL,2021-03-16 23:12:45,-33.0393,-71.6273,63.99,60.8,68.0,Clear,clear sky,67,0,11.5
188,Mikkeli,FI,2021-03-16 23:15:26,61.6886,27.2723,24.31,24.31,24.31,Clouds,overcast clouds,96,95,2.86
189,Igarka,RU,2021-03-16 23:15:38,67.4667,86.5833,-26.95,-26.95,-26.95,Clouds,broken clouds,88,71,5.93
190,Satinka,RU,2021-03-16 23:15:39,52.3792,41.6819,27.14,27.14,27.14,Snow,light snow,92,100,14.76
191,Upernavik,GL,2021-03-16 23:15:39,72.7868,-56.1549,-1.39,-1.39,-1.39,Clouds,overcast clouds,95,99,4.07
192,Vanimo,PG,2021-03-16 23:15:39,-2.6741,141.3028,79.63,79.63,79.63,Clouds,broken clouds,87,54,4.03
193,Beloha,MG,2021-03-16 23:15:40,-25.1667,45.05,74.93,74.93,74.93,Clear,clear sky,75,0,9.42
194,Fort-Shevchenko,KZ,2021-03-16 23:15:40,44.5086,50.263,37.8,37.8,37.8,Clouds,scattered clouds,52,35,32.3
195,Chuy,UY,2021-03-16 23:15:40,-33.6971,-53.4616,72.82,72.82,72.82,Clouds,overcast clouds,87,92,11.56
196,Uige,AO,2021-03-16 23:15:41,-7.6087,15.0613,67.39,67.39,67.39,Clouds,overcast clouds,98,100,2.13
197,Tiksi,RU,2021-03-16 23:15:29,71.6872,128.8694,-14.94,-14.94,-14.94,Clouds,overcast clouds,99,100,4.25
198,Smithers,CA,2021-03-16 23:15:11,54.7804,-127.1743,41.0,41.0,41.0,Clouds,overcast clouds,56,90,12.66
199,Dingle,PH,2021-03-16 23:15:41,10.9995,122.6711,78.22,78.22,78.22,Clouds,broken clouds,86,56,3.04
200,Mount Isa,AU,2021-03-16 23:15:42,-20.7333,139.5,82.4,82.4,82.4,Clouds,broken clouds,42,61,11.5
201,Castro Verde,PT,2021-03-16 23:14:09,37.6983,-8.0858,57.2,57.2,57.2,Clear,clear sky,54,0,5.75
202,Edd,ER,2021-03-16 23:15:42,13.9297,41.6925,82.89,82.89,82.89,Clear,clear sky,44,0,20.87
203,Komsomolskiy,UZ,2021-03-16 23:15:42,40.4272,71.7189,35.6,35.6,35.6,Mist,mist,80,100,2.3
204,Canton,CN,2021-03-16 23:14:44,23.1167,113.25,71.22,68.0,73.0,Clear,clear sky,88,0,4.47
205,Zhangjiakou,CN,2021-03-16 23:15:43,40.81,114.8794,36.34,36.34,36.34,Clouds,scattered clouds,50,36,4.34
206,Puerto Del Rosario,ES,2021-03-16 23:15:43,28.5004,-13.8627,64.4,64.4,64.4,Clear,clear sky,77,0,14.97
207,Selikhino,RU,2021-03-16 23:15:43,50.3672,137.4996,16.34,16.34,16.34,Clouds,overcast clouds,75,100,12.03
208,Lardos,GR,2021-03-16 23:15:44,36.0942,28.0157,52.07,50.0,54.0,Clouds,broken clouds,93,75,2.3
209,Carnarvon,AU,2021-03-16 23:15:44,-24.8667,113.6333,78.8,78.8,78.8,Clouds,scattered clouds,83,32,14.97
210,Teguldet,RU,2021-03-16 23:15:44,57.3064,88.1667,10.72,10.72,10.72,Clouds,overcast clouds,95,100,6.38
211,Yashkul,RU,2021-03-16 23:15:45,46.1711,45.3435,39.0,39.0,39.0,Clouds,overcast clouds,62,93,21.68
212,Inhambane,MZ,2021-03-16 23:15:45,-23.865,35.3833,75.58,75.58,75.58,Clear,clear sky,87,0,6.53
213,The Valley,AI,2021-03-16 23:15:45,18.217,-63.0578,77.29,77.0,78.01,Clouds,scattered clouds,69,40,10.36
214,Huangnihe,CN,2021-03-16 23:15:46,43.5583,128.0239,22.75,22.75,22.75,Clear,clear sky,54,9,6.02
215,Hasaki,JP,2021-03-16 23:15:46,35.7333,140.8333,53.55,53.01,54.0,Clouds,few clouds,50,20,9.22
216,Sivaki,RU,2021-03-16 23:15:47,52.6333,126.75,7.68,7.68,7.68,Clear,clear sky,76,0,7.9
217,Sinop,TR,2021-03-16 23:15:47,41.7711,34.8709,41.92,41.92,41.92,Clouds,broken clouds,66,70,13.31
218,Lakefield,US,2021-03-16 23:15:47,43.6775,-95.1717,32.0,32.0,32.0,Snow,light snow,100,90,9.22
219,Kavieng,PG,2021-03-16 23:15:48,-2.5744,150.7967,82.15,82.15,82.15,Clouds,overcast clouds,73,95,9.57
220,Ipixuna,BR,2021-03-16 23:15:48,-1.7625,-48.8043,77.0,77.0,77.0,Clouds,few clouds,88,20,8.05
221,Alihe,CN,2021-03-16 23:15:48,50.5667,123.7167,13.33,13.33,13.33,Clouds,overcast clouds,87,94,2.82
222,Artsyz,UA,2021-03-16 23:15:49,45.9919,29.4182,44.35,44.35,44.35,Rain,light rain,95,100,6.58
223,Sabang,ID,2021-03-16 23:15:49,5.8933,95.3214,82.15,82.15,82.15,Clouds,broken clouds,72,79,5.93
224,Carballo,ES,2021-03-16 23:15:49,43.213,-8.691,48.74,48.0,50.0,Clouds,few clouds,83,22,1.99
225,Padang,ID,2021-03-16 23:15:50,-0.9492,100.3543,75.49,75.49,75.49,Clouds,overcast clouds,93,100,2.71
226,Nikolskoye,RU,2021-03-16 23:15:50,59.7035,30.7861,27.28,24.01,30.99,Clear,clear sky,93,0,2.24
227,Los Llanos De Aridane,ES,2021-03-16 23:15:50,28.6585,-17.9182,58.75,55.0,64.4,Clouds,broken clouds,68,75,12.66
228,Yambio,SS,2021-03-16 23:15:51,4.5721,28.3955,69.35,69.35,69.35,Rain,light rain,91,100,5.53
229,Great Yarmouth,GB,2021-03-16 23:15:51,52.6083,1.7305,44.74,44.01,46.4,Clouds,broken clouds,76,79,18.41
230,Ambon,ID,2021-03-16 23:15:51,-3.6954,128.1814,77.0,77.0,77.0,Clouds,few clouds,88,20,5.75
231,Grindavik,IS,2021-03-16 23:15:52,63.8424,-22.4338,44.6,44.6,44.6,Rain,heavy intensity rain,100,90,21.85
232,Boende,CD,2021-03-16 23:15:52,-0.2167,20.8667,67.78,67.78,67.78,Rain,light rain,98,100,1.77
233,San Ignacio,BZ,2021-03-16 23:15:53,17.1561,-89.0714,86.95,84.0,89.6,Clouds,scattered clouds,51,40,9.44
234,Harur,IN,2021-03-16 23:15:53,12.0667,78.5,67.8,67.8,67.8,Clouds,scattered clouds,75,34,2.06
235,Ewa Beach,US,2021-03-16 23:15:53,21.3156,-158.0072,77.02,73.4,78.8,Rain,light rain,69,90,11.5
236,Krivodol,BG,2021-03-16 23:15:54,43.3744,23.4844,39.9,39.9,39.9,Clouds,overcast clouds,82,100,12.35
237,Kavaratti,IN,2021-03-16 23:15:54,10.5669,72.642,82.51,82.51,82.51,Clear,clear sky,70,6,8.14
238,Comodoro Rivadavia,AR,2021-03-16 23:15:55,-45.8667,-67.5,51.8,51.8,51.8,Clear,clear sky,76,0,3.2
239,Denpasar,ID,2021-03-16 23:12:54,-8.65,115.2167,77.0,77.0,77.0,Clouds,few clouds,88,20,3.44
240,Techiman,GH,2021-03-16 23:15:56,7.5862,-1.9414,79.25,79.25,79.25,Clouds,broken clouds,67,58,7.05
241,Nizwa,OM,2021-03-16 23:15:56,22.9333,57.5333,67.1,67.1,67.1,Clouds,few clouds,31,21,3.42
242,Dongying,CN,2021-03-16 23:15:56,37.4564,118.4856,41.68,41.68,41.68,Clouds,few clouds,23,20,5.41
243,Songjianghe,CN,2021-03-16 23:15:57,42.1859,127.479,21.87,21.87,21.87,Clear,clear sky,58,0,4.23
244,Kalengwa,ZM,2021-03-16 23:15:57,-13.4659,25.0027,62.64,62.64,62.64,Clouds,overcast clouds,98,100,4.03
245,Guerrero Negro,MX,2021-03-16 23:15:58,27.9769,-114.0611,59.59,59.59,59.59,Clear,clear sky,55,0,23.42
246,Khatanga,RU,2021-03-16 23:15:58,71.9667,102.5,-43.4,-43.4,-43.4,Clouds,broken clouds,97,52,10.78
247,Vao,NC,2021-03-16 23:15:58,-22.6667,167.4833,77.05,77.05,77.05,Clouds,scattered clouds,81,43,14.47
248,Marienburg,PL,2021-03-16 23:15:58,54.0359,19.0266,35.31,34.0,36.0,Clear,clear sky,100,0,4.23
249,Santa Rosalia,MX,2021-03-16 23:15:59,27.3167,-112.2833,58.82,58.82,58.82,Clear,clear sky,61,1,7.94
250,Sambava,MG,2021-03-16 23:15:59,-14.2667,50.1667,76.28,76.28,76.28,Clouds,overcast clouds,88,100,6.44
251,Torbay,CA,2021-03-16 23:16:00,47.6666,-52.7314,25.75,24.01,28.0,Snow,snow,86,90,27.63
252,Lazaro Cardenas,MX,2021-03-16 23:16:00,17.9583,-102.2,79.86,79.86,79.86,Clear,clear sky,65,0,9.17
253,Synya,RU,2021-03-16 23:16:00,65.3718,58.0387,23.65,23.65,23.65,Snow,light snow,97,100,1.32
254,Hambantota,LK,2021-03-16 23:16:01,6.1241,81.1185,76.17,76.17,76.17,Clouds,broken clouds,84,79,11.5
255,Laukaa,RU,2021-03-16 23:16:01,58.7372,29.8453,31.03,31.03,31.03,Clouds,overcast clouds,92,100,2.55
256,Katsuura,JP,2021-03-16 23:16:01,35.1333,140.3,54.55,53.01,55.4,Clouds,few clouds,44,20,10.36
257,Acapulco,MX,2021-03-16 23:12:41,16.8634,-99.8901,84.2,84.2,84.2,Clouds,scattered clouds,65,40,8.05
258,Vila Velha,BR,2021-03-16 23:14:11,-20.3297,-40.2925,78.91,78.8,79.0,Clear,clear sky,78,0,8.05
259,Kapaa,US,2021-03-16 23:16:02,22.0752,-159.319,72.34,71.01,73.4,Rain,light rain,78,90,24.16
260,Tilichiki,RU,2021-03-16 23:16:02,60.4667,166.1,14.36,14.36,14.36,Clouds,scattered clouds,87,45,10.4
261,Port-Gentil,GA,2021-03-16 23:16:02,-0.7193,8.7815,80.69,80.69,80.69,Rain,light rain,79,100,10.83
262,Te Anau,NZ,2021-03-16 23:16:03,-45.4167,167.7167,54.64,54.64,54.64,Clouds,broken clouds,63,64,2.51
263,Namatanai,PG,2021-03-16 23:16:03,-3.6667,152.4333,83.23,83.23,83.23,Clouds,overcast clouds,69,93,5.21
264,Broken Hill,AU,2021-03-16 23:16:04,-31.95,141.4333,66.2,66.2,66.2,Clouds,scattered clouds,48,39,6.91
265,Tabas,IR,2021-03-16 23:16:04,33.5959,56.9244,61.93,61.93,61.93,Clouds,scattered clouds,27,48,3.74
266,Puerto Leguizamo,CO,2021-03-16 23:16:04,-0.1934,-74.7819,75.33,75.33,75.33,Clouds,overcast clouds,83,90,2.08
267,Reforma,MX,2021-03-16 23:16:05,18.1,-91.0167,93.33,93.33,93.33,Clear,clear sky,41,0,3.89
268,San Patricio,US,2021-03-16 23:16:05,28.017,-97.5169,76.28,75.0,78.8,Clear,clear sky,78,1,16.11
269,Yulara,AU,2021-03-16 23:16:06,-25.2406,130.9889,68.0,68.0,68.0,Clouds,overcast clouds,24,96,10.36
270,Pacific Grove,US,2021-03-16 23:13:31,36.6177,-121.9166,52.66,51.01,55.4,Clouds,broken clouds,54,75,10.36
271,Tuatapere,NZ,2021-03-16 23:16:06,-46.1333,167.6833,57.0,57.0,57.0,Clouds,overcast clouds,69,98,15.01
272,Sungurlu,TR,2021-03-16 23:16:06,40.1675,34.3739,40.44,40.44,40.44,Clouds,overcast clouds,72,85,7.02
273,Chickasha,US,2021-03-16 23:16:07,35.0526,-97.9364,77.0,77.0,77.0,Clear,clear sky,41,1,13.8
274,New Norfolk,AU,2021-03-16 23:16:07,-42.7826,147.0587,57.97,57.0,59.0,Clouds,broken clouds,62,67,2.35
275,Nanortalik,GL,2021-03-16 23:14:42,60.1432,-45.2371,27.23,27.23,27.23,Clouds,overcast clouds,90,100,5.21
276,New Port Richey,US,2021-03-16 23:15:59,28.2442,-82.7193,76.14,73.99,78.01,Clear,clear sky,75,5,14.25
277,Farrukhnagar,IN,2021-03-16 23:16:08,17.0778,78.2011,71.62,68.0,75.0,Clear,clear sky,77,0,3.44
278,Ostrovnoy,RU,2021-03-16 23:16:08,68.0531,39.5131,21.34,21.34,21.34,Clouds,overcast clouds,81,100,9.48
279,Acopiara,BR,2021-03-16 23:16:08,-6.0953,-39.4525,75.92,75.92,75.92,Clouds,few clouds,67,19,0.65
280,Sangar,RU,2021-03-16 23:16:09,63.9242,127.4739,4.39,4.39,4.39,Snow,light snow,94,100,12.26
281,Fortuna,US,2021-03-16 23:15:38,40.5982,-124.1573,50.05,48.0,53.01,Clear,clear sky,53,1,16.11
282,Wuwei,CN,2021-03-16 23:16:09,37.9281,102.6414,34.25,34.25,34.25,Clouds,overcast clouds,29,97,1.79
283,Grand Gaube,MU,2021-03-16 23:16:10,-20.0064,57.6608,77.0,77.0,77.0,Clouds,overcast clouds,83,99,3.0
284,Deputatskiy,RU,2021-03-16 23:16:10,69.3,139.9,-16.6,-16.6,-16.6,Clouds,scattered clouds,84,33,4.59
285,Shelkovskaya,RU,2021-03-16 23:16:11,43.5069,46.3392,37.4,37.4,37.4,Mist,mist,100,75,2.24
286,Donskoye,RU,2021-03-16 23:11:21,45.4552,41.9741,35.29,35.01,35.6,Snow,snow,100,90,11.18
287,Vila Do Maio,CV,2021-03-16 23:16:11,15.1333,-23.2167,69.8,69.8,69.8,Clear,clear sky,73,0,13.8
288,Kieta,PG,2021-03-16 23:16:11,-6.2167,155.6333,84.45,84.45,84.45,Clear,clear sky,65,0,1.68
289,Anadyr,RU,2021-03-16 23:16:12,64.75,177.4833,-4.0,-4.0,-4.0,Snow,snow,77,20,20.13
290,Iberia,US,2021-03-16 23:16:12,29.9502,-91.7507,76.35,75.2,77.0,Clouds,broken clouds,83,75,11.5
291,Murgab,TM,2021-03-16 23:16:12,37.4966,61.9714,39.2,39.2,39.2,Clear,clear sky,65,0,9.22
292,Mehamn,NO,2021-03-16 23:16:13,71.0357,27.8492,17.6,17.6,17.6,Snow,light snow,67,40,25.32
293,Palana,RU,2021-03-16 23:16:13,59.1167,159.9667,14.52,14.52,14.52,Clouds,broken clouds,90,67,13.13
294,Erenhot,CN,2021-03-16 23:16:14,43.6475,111.9767,27.91,27.91,27.91,Clouds,scattered clouds,21,26,3.44
295,Salalah,OM,2021-03-16 23:16:14,17.0151,54.0924,73.4,73.4,73.4,Clear,clear sky,68,0,3.44
296,Longyearbyen,SJ,2021-03-16 23:16:14,78.2186,15.6401,-5.8,-5.8,-5.8,Clouds,few clouds,65,20,17.27
297,Fredericksburg,US,2021-03-16 23:15:11,38.3032,-77.4605,41.54,41.0,42.8,Mist,mist,100,90,8.05
298,Mao,ES,2021-03-16 23:16:15,39.8885,4.2658,50.0,50.0,50.0,Clear,clear sky,81,0,5.75
299,Umm Kaddadah,SD,2021-03-16 23:16:15,13.6017,26.6876,81.73,81.73,81.73,Clear,clear sky,6,0,14.32
300,Sakakah,SA,2021-03-16 23:16:16,29.9697,40.2064,66.2,66.2,66.2,Clear,clear sky,26,0,6.91
301,Kimbe,PG,2021-03-16 23:16:16,-5.5502,150.1429,85.42,85.42,85.42,Clouds,broken clouds,66,78,1.03
302,Doba,TD,2021-03-16 23:16:16,8.65,16.85,80.24,80.24,80.24,Clouds,overcast clouds,53,95,6.4
303,Ornskoldsvik,SE,2021-03-16 23:16:17,63.2909,18.7153,28.4,28.4,28.4,Clouds,overcast clouds,80,90,5.75
304,Olafsvik,IS,2021-03-16 23:16:17,64.8945,-23.7142,42.12,42.12,42.12,Clouds,overcast clouds,96,100,15.26
305,Saint George,US,2021-03-16 23:15:13,37.1041,-113.5841,46.47,46.0,46.99,Clouds,overcast clouds,61,90,9.22
306,Soddy-Daisy,US,2021-03-16 23:16:17,35.2359,-85.1908,53.44,50.0,55.99,Clouds,overcast clouds,84,100,2.39
307,Dalbandin,PK,2021-03-16 23:16:18,28.8947,64.4101,64.04,64.04,64.04,Clouds,broken clouds,23,75,4.12
308,Rawson,AR,2021-03-16 23:16:18,-43.3002,-65.1023,54.54,54.54,54.54,Clouds,broken clouds,65,77,25.46
309,La Union,PE,2021-03-16 23:16:19,-5.4,-80.75,85.5,85.5,85.5,Clouds,overcast clouds,51,90,13.67
310,Zhigansk,RU,2021-03-16 23:16:19,66.7697,123.3711,-11.06,-11.06,-11.06,Clouds,broken clouds,90,59,6.04
311,Kichera,RU,2021-03-16 23:16:19,55.9375,110.0997,6.3,6.3,6.3,Clouds,overcast clouds,91,95,0.45
312,Tagusao,PH,2021-03-16 23:16:20,9.1924,117.8141,78.8,78.8,78.8,Clear,clear sky,84,7,3.71
313,Bocana De Paiwas,NI,2021-03-16 23:16:20,12.7857,-85.1227,81.91,81.91,81.91,Clouds,broken clouds,55,67,11.41
314,Borgarnes,IS,2021-03-16 23:16:21,64.5383,-21.9206,42.01,42.01,42.01,Rain,heavy intensity rain,91,100,5.99
315,Chapais,CA,2021-03-16 23:16:21,49.7834,-74.8492,33.8,33.8,33.8,Clouds,broken clouds,34,75,9.22
316,Andenes,NO,2021-03-16 23:16:21,69.3143,16.1194,29.73,28.99,30.2,Clouds,overcast clouds,69,90,10.36
317,Terra Santa,BR,2021-03-16 23:16:22,-2.1042,-56.4869,78.93,78.93,78.93,Clouds,overcast clouds,78,85,2.59
318,Buala,SB,2021-03-16 23:16:22,-8.145,159.5921,84.81,84.81,84.81,Clouds,scattered clouds,64,43,4.07
319,Rupert,US,2021-03-16 23:16:22,42.6191,-113.6772,53.6,53.6,53.6,Clear,clear sky,35,1,9.22
320,Mirnyy,RU,2021-03-16 23:16:23,62.5353,113.9611,13.32,13.32,13.32,Clouds,overcast clouds,91,100,9.66
321,Sungairaya,ID,2021-03-16 23:16:23,0.7,108.9,76.82,76.82,76.82,Clouds,broken clouds,89,66,2.17
322,Aginskoye,RU,2021-03-16 23:16:23,51.1,114.53,10.4,10.4,10.4,Clouds,broken clouds,86,83,8.77
323,Aleksandrovskiy Zavod,RU,2021-03-16 23:16:23,50.9237,117.9374,8.06,8.06,8.06,Clouds,overcast clouds,80,91,3.0
324,Kuala Sungai Baru,MY,2021-03-16 23:16:24,2.3594,102.0353,74.17,73.4,75.0,Rain,moderate rain,100,40,5.75
325,Marawi,PH,2021-03-16 23:16:24,7.9986,124.2928,75.0,75.0,75.0,Clear,clear sky,87,8,4.0
326,North Bend,US,2021-03-16 23:15:30,43.4065,-124.2243,50.4,48.2,53.01,Clear,clear sky,61,1,17.27
327,Tura,IN,2021-03-16 23:16:25,25.5198,90.2201,67.57,67.57,67.57,Clear,clear sky,28,0,3.29
328,Tonantins,BR,2021-03-16 23:16:25,-2.8731,-67.8022,77.58,77.58,77.58,Clouds,overcast clouds,93,99,2.71
329,Kalianget,ID,2021-03-16 23:16:25,-7.05,113.9333,79.29,79.29,79.29,Clouds,broken clouds,79,65,0.98
330,Nelson Bay,AU,2021-03-16 23:16:26,-32.7167,152.15,71.82,71.6,72.0,Clouds,overcast clouds,68,90,12.66
331,Aksarka,RU,2021-03-16 23:16:26,66.5606,67.7975,1.45,1.45,1.45,Clouds,overcast clouds,96,100,9.44
332,Champerico,GT,2021-03-16 23:16:27,14.3,-91.9167,77.72,73.0,82.4,Clouds,broken clouds,69,75,9.22
333,Kidal,ML,2021-03-16 23:16:27,18.4411,1.4078,77.81,77.81,77.81,Clear,clear sky,11,0,8.48
334,Port Hedland,AU,2021-03-16 23:16:27,-20.3167,118.5667,80.6,80.6,80.6,Clouds,overcast clouds,83,91,5.75
335,Dunedin,NZ,2021-03-16 23:16:28,-45.8742,170.5036,56.66,55.0,57.99,Clouds,broken clouds,69,71,5.99
336,Rheinau,DE,2021-03-16 23:16:28,48.8667,8.2,39.7,39.0,41.0,Clouds,overcast clouds,93,90,2.3
337,Kaitangata,NZ,2021-03-16 23:16:28,-46.2817,169.8464,55.0,55.0,55.0,Clouds,overcast clouds,75,98,5.01
338,Yining,CN,2021-03-16 23:16:29,29.0361,114.5636,58.55,58.55,58.55,Clouds,overcast clouds,96,94,1.79
339,Maldonado,UY,2021-03-16 23:11:53,-34.6667,-54.9167,75.6,75.2,75.99,Clouds,overcast clouds,78,90,9.22
340,Wainwright,CA,2021-03-16 23:15:11,52.839,-110.8572,46.98,46.4,48.2,Clear,clear sky,39,0,10.36
341,Stephenville,US,2021-03-16 23:16:29,32.2207,-98.2023,75.34,75.0,75.99,Clear,clear sky,60,1,13.8
342,Muravlenko,RU,2021-03-16 23:16:30,63.7898,74.523,20.73,20.73,20.73,Clouds,overcast clouds,93,100,14.14
343,Norman Wells,CA,2021-03-16 23:16:30,65.282,-126.8329,-2.2,-2.2,-2.2,Clouds,broken clouds,71,75,3.44
344,San Carlos De Bariloche,AR,2021-03-16 23:16:30,-41.1456,-71.3082,61.47,60.8,62.01,Clouds,scattered clouds,20,40,11.5
345,Tommot,RU,2021-03-16 23:16:31,58.9564,126.2925,5.99,5.99,5.99,Clouds,overcast clouds,89,89,1.92
346,Bestobe,KZ,2021-03-16 23:16:31,52.4994,73.0975,10.63,10.63,10.63,Clouds,overcast clouds,93,100,13.76
347,La Grande,US,2021-03-16 23:16:31,45.3246,-118.0877,35.31,32.0,39.2,Clouds,overcast clouds,60,90,4.61
348,Pomabamba,PE,2021-03-16 23:16:31,-8.8333,-77.4667,52.54,52.54,52.54,Rain,light rain,84,100,3.4
349,Severo-Kurilsk,RU,2021-03-16 23:16:32,50.6789,156.125,34.92,34.92,34.92,Rain,light rain,98,100,9.84
350,Gainesville,US,2021-03-16 23:15:12,29.6516,-82.3248,77.27,75.99,80.01,Clouds,few clouds,61,20,9.22
351,Polunochnoye,RU,2021-03-16 23:16:32,60.8697,60.4153,25.47,25.47,25.47,Clouds,overcast clouds,86,99,8.99
352,Atasu,KZ,2021-03-16 23:16:33,48.6814,71.6433,-3.03,-3.03,-3.03,Clear,clear sky,71,0,2.01
353,Sitka,US,2021-03-16 23:16:33,57.0531,-135.33,39.2,39.2,39.2,Snow,light snow,70,90,6.91
354,Porto Novo,BJ,2021-03-16 23:16:33,6.4965,2.6036,84.2,84.2,84.2,Clouds,scattered clouds,84,40,14.97
355,Hamilton,US,2021-03-16 23:12:31,39.1834,-84.5333,53.31,52.0,54.0,Clouds,overcast clouds,76,90,5.75
356,Sawtell,AU,2021-03-16 23:16:34,-30.3833,153.1,70.72,66.0,73.0,Clouds,overcast clouds,78,90,11.5
357,Camacha,PT,2021-03-16 23:16:34,33.0833,-16.3333,60.8,60.8,60.8,Clouds,scattered clouds,82,40,12.66
358,Talnakh,RU,2021-03-16 23:16:34,69.4865,88.3972,-26.61,-26.61,-26.61,Clouds,overcast clouds,88,86,5.55
359,Maniitsoq,GL,2021-03-16 23:16:35,65.4167,-52.9,10.06,10.06,10.06,Clouds,broken clouds,87,76,10.65
360,Saint Marys,US,2021-03-16 23:12:16,30.7305,-81.5465,72.37,68.0,75.99,Clear,clear sky,88,1,18.41
361,Canon City,US,2021-03-16 23:16:35,38.441,-105.2424,39.79,36.0,42.8,Clouds,overcast clouds,65,90,13.8
362,Saint Anthony,US,2021-03-16 23:16:36,45.0205,-93.218,35.53,34.0,37.0,Clouds,overcast clouds,69,90,3.44
363,Lumphat,KH,2021-03-16 23:16:36,13.4878,106.9816,71.19,71.19,71.19,Clouds,scattered clouds,50,41,2.13
364,Jiuquan,CN,2021-03-16 23:16:36,39.7432,98.5174,33.78,33.78,33.78,Clouds,overcast clouds,21,100,1.86
365,Kochinda,IN,2021-03-16 23:16:37,21.7333,84.35,69.37,69.37,69.37,Clear,clear sky,34,0,4.5
366,Coihueco,CL,2021-03-16 23:16:37,-36.6167,-71.8333,66.2,66.2,66.2,Clouds,broken clouds,59,75,8.05
367,Coihaique,CL,2021-03-16 23:16:37,-45.5752,-72.0662,57.2,57.2,57.2,Clouds,few clouds,51,20,4.61
368,Berlevag,NO,2021-03-16 23:16:38,70.8578,29.0864,17.6,17.6,17.6,Snow,light snow,67,40,25.32
369,Mildura,AU,2021-03-16 23:16:38,-34.2,142.15,70.83,69.8,72.0,Clear,clear sky,56,2,10.36
370,Skelleftea,SE,2021-03-16 23:16:38,64.7507,20.9528,28.4,28.4,28.4,Clouds,overcast clouds,69,90,5.75
371,Provideniya,RU,2021-03-16 23:16:38,64.3833,-173.3,6.8,6.8,6.8,Snow,light snow,78,75,6.71
372,Pangnirtung,CA,2021-03-16 23:16:39,66.1451,-65.7125,-20.2,-20.2,-20.2,Clear,clear sky,69,1,3.13
373,Yabrud,SY,2021-03-16 23:16:39,33.9674,36.6574,44.56,37.99,50.0,Clear,clear sky,62,0,16.11
374,Tambopata,PE,2021-03-16 23:16:39,-12.7333,-69.1833,76.48,76.48,76.48,Rain,moderate rain,93,84,2.21
375,Garowe,SO,2021-03-16 23:16:40,8.4054,48.4845,68.88,68.88,68.88,Clouds,scattered clouds,88,49,9.4
376,Fairhope,US,2021-03-16 23:16:40,30.523,-87.9033,75.38,73.4,77.0,Clouds,broken clouds,83,75,6.91
377,Ponta Do Sol,PT,2021-03-16 23:16:40,32.6667,-17.1,54.46,52.0,55.99,Clear,clear sky,63,0,3.0
378,Sabaudia,IT,2021-03-16 23:16:41,41.3003,13.0282,38.03,35.01,42.01,Clear,clear sky,61,1,4.0
379,Portales,US,2021-03-16 23:16:41,34.1862,-103.3344,71.2,71.01,71.6,Haze,haze,4,75,29.93
380,Manacapuru,BR,2021-03-16 23:15:12,-3.2997,-60.6206,82.4,82.4,82.4,Rain,moderate rain,78,20,8.05
381,Muros,ES,2021-03-16 23:16:41,42.7762,-9.0603,53.1,52.0,54.0,Clouds,scattered clouds,67,28,3.0
382,Russell,US,2021-03-16 23:16:42,32.3502,-85.1999,64.29,60.8,66.99,Rain,moderate rain,88,90,6.91
383,Nouadhibou,MR,2021-03-16 23:16:42,20.931,-17.0347,65.05,65.05,65.05,Clouds,scattered clouds,77,28,18.37
384,Aklavik,CA,2021-03-16 23:16:42,68.2191,-135.0107,-4.0,-4.0,-4.0,Clouds,broken clouds,65,67,1.14
385,Mayumba,GA,2021-03-16 23:16:43,-3.432,10.6554,77.74,77.74,77.74,Clouds,overcast clouds,83,88,5.73
386,Galle,LK,2021-03-16 23:15:22,6.0367,80.217,76.84,76.84,76.84,Clouds,broken clouds,84,72,4.03
387,Lac Du Bonnet,CA,2021-03-16 23:16:43,50.2536,-96.0612,44.01,44.01,44.01,Clouds,overcast clouds,99,94,4.0
388,Balkanabat,TM,2021-03-16 23:16:44,39.5108,54.3671,46.62,46.62,46.62,Clear,clear sky,47,0,14.99
389,Makakilo City,US,2021-03-16 23:16:44,21.3469,-158.0858,76.84,73.4,78.8,Rain,light rain,69,90,11.5
390,Bitritto,IT,2021-03-16 23:16:44,41.0445,16.8252,46.74,43.0,50.0,Clouds,scattered clouds,66,40,6.91
391,Hanna,CA,2021-03-16 23:16:44,51.6334,-111.9018,45.81,44.6,46.4,Clear,clear sky,39,0,2.3
392,Souillac,MU,2021-03-16 23:16:45,-20.5167,57.5167,78.8,78.8,78.8,Rain,light rain,78,75,10.36
393,Kalmar,SE,2021-03-16 23:16:45,56.6616,16.3616,28.71,28.4,28.99,Clouds,few clouds,100,20,3.87
394,Taoudenni,ML,2021-03-16 23:16:46,22.6783,-3.9836,73.98,73.98,73.98,Clear,clear sky,17,0,15.26
395,Boa Vista,BR,2021-03-16 23:14:22,2.8197,-60.6733,82.4,82.4,82.4,Rain,light rain,69,40,8.05
396,Porto Empedocle,IT,2021-03-16 23:15:19,37.2934,13.5264,38.55,37.0,42.01,Clear,clear sky,95,0,11.59
397,Grand-Santi,GF,2021-03-16 23:16:46,4.25,-54.3833,75.16,75.16,75.16,Clouds,broken clouds,89,71,5.17
398,Hirara,JP,2021-03-16 23:16:46,24.8,125.2833,71.6,71.6,71.6,Clouds,few clouds,100,20,3.44
399,Hammerfest,NO,2021-03-16 23:16:47,70.6634,23.6821,19.4,19.4,19.4,Snow,snow,68,75,13.8
400,Kalloni,GR,2021-03-16 23:16:47,39.2328,26.2081,49.77,49.77,49.77,Clouds,scattered clouds,57,40,20.15
401,Karratha,AU,2021-03-16 23:16:47,-20.7377,116.8463,82.69,82.69,82.69,Clouds,broken clouds,57,62,5.3
402,Muzhi,RU,2021-03-16 23:16:48,65.3667,64.6667,4.95,4.95,4.95,Clouds,overcast clouds,96,98,5.44
403,Peniche,PT,2021-03-16 23:16:48,39.3558,-9.3811,56.39,53.01,59.0,Clear,clear sky,73,5,4.0
404,Isangel,VU,2021-03-16 23:16:48,-19.55,169.2667,86.0,86.0,86.0,Clouds,few clouds,70,20,13.8
405,Ibra,OM,2021-03-16 23:16:49,22.6906,58.5334,64.54,64.54,64.54,Clear,clear sky,46,8,2.19
406,Mamallapuram,IN,2021-03-16 23:16:49,12.6264,80.1722,73.4,73.4,73.4,Mist,mist,94,20,2.3
407,Sur,OM,2021-03-16 23:16:50,22.5667,59.5289,78.55,78.55,78.55,Clouds,few clouds,41,12,6.38
408,Arkansas City,US,2021-03-16 23:12:26,37.062,-97.0384,76.8,75.2,78.8,Clear,clear sky,33,1,9.22
409,Aksay,RU,2021-03-16 23:16:50,47.26,39.87,37.74,37.4,37.99,Rain,light rain,87,75,15.66
410,Rocha,UY,2021-03-16 23:16:50,-34.4833,-54.3333,71.53,71.53,71.53,Clouds,overcast clouds,85,88,10.96
411,Tres Passos,BR,2021-03-16 23:16:51,-27.4556,-53.9319,77.0,77.0,77.0,Clouds,broken clouds,77,71,7.4
412,Nampa,US,2021-03-16 23:16:51,43.5407,-116.5635,54.75,54.0,55.4,Clear,clear sky,38,1,10.36
413,Narsaq,GL,2021-03-16 23:16:52,60.9167,-46.05,33.8,33.8,33.8,Clouds,broken clouds,75,75,4.61
414,Traverse City,US,2021-03-16 23:16:52,44.7631,-85.6206,33.46,32.0,35.6,Clouds,overcast clouds,69,90,4.61
415,Ashtabula,US,2021-03-16 23:16:52,41.7001,-80.7665,45.12,44.01,46.4,Clear,clear sky,53,1,5.75
416,Rosetta,EG,2021-03-16 23:16:53,31.4044,30.4164,57.2,57.2,57.2,Clear,clear sky,72,0,5.75
417,Megion,RU,2021-03-16 23:14:19,61.0296,76.1136,24.8,24.8,24.8,Clouds,overcast clouds,74,90,8.95
418,Fare,PF,2021-03-16 23:16:53,-16.7,-151.0167,82.24,82.24,82.24,Rain,light rain,73,72,9.44
419,Bowen,AU,2021-03-16 23:16:54,-20.0167,148.2333,82.4,82.4,82.4,Clouds,scattered clouds,74,40,4.61
420,Beira,MZ,2021-03-16 23:16:54,-19.8436,34.8389,79.3,78.01,80.6,Clouds,scattered clouds,78,40,4.61
421,Southbridge,US,2021-03-16 23:16:54,42.0751,-72.0334,32.45,30.0,34.0,Clouds,overcast clouds,20,100,1.99
422,Suba,PH,2021-03-16 23:16:55,10.8438,121.0102,81.28,81.28,81.28,Clouds,scattered clouds,74,38,2.42
423,Salamanca,ES,2021-03-16 23:16:55,40.8333,-6.0,43.32,41.0,45.0,Clear,clear sky,80,0,3.0
424,Port Hardy,CA,2021-03-16 23:16:55,50.6996,-127.4199,44.6,44.6,44.6,Clouds,overcast clouds,65,90,8.05
425,Mitu,CO,2021-03-16 23:16:56,1.1983,-70.1733,73.49,73.49,73.49,Clouds,overcast clouds,97,98,1.95
426,Jishou,CN,2021-03-16 23:16:56,28.3167,109.7167,58.35,58.35,58.35,Clouds,overcast clouds,95,97,2.44
427,Roald,NO,2021-03-16 23:16:56,62.5833,6.1333,32.22,27.0,35.01,Clouds,broken clouds,86,75,12.66
428,Kasangulu,CD,2021-03-16 23:16:57,-4.5911,15.1708,73.42,71.6,75.2,Clouds,broken clouds,88,75,1.83
429,Jumla,NP,2021-03-16 23:15:12,29.2747,82.1838,41.13,41.13,41.13,Clear,clear sky,65,0,3.78
430,Nyurba,RU,2021-03-16 23:16:57,63.2842,118.3319,9.54,9.54,9.54,Clouds,overcast clouds,94,97,8.25
431,Awjilah,LY,2021-03-16 23:16:58,29.1081,21.2869,54.39,54.39,54.39,Clear,clear sky,64,0,6.53
432,Nhulunbuy,AU,2021-03-16 23:16:58,-12.2333,136.7667,84.2,84.2,84.2,Clouds,overcast clouds,74,94,2.3
433,Moose Factory,CA,2021-03-16 23:16:58,51.2585,-80.6094,39.2,39.2,39.2,Clouds,overcast clouds,48,90,9.22
434,Buritizeiro,BR,2021-03-16 23:14:10,-17.3511,-44.9622,71.2,71.2,71.2,Clouds,scattered clouds,79,29,1.66
435,Vardo,NO,2021-03-16 23:16:59,70.3705,31.1107,10.4,10.4,10.4,Snow,light snow,85,40,9.22
436,Cuenca,EC,2021-03-16 23:13:53,-2.8833,-78.9833,55.4,55.4,55.4,Rain,moderate rain,100,90,3.29
437,Bonfim,BR,2021-03-16 23:16:59,3.0833,-59.95,83.95,83.95,83.95,Rain,moderate rain,62,93,7.85
438,Kupang,ID,2021-03-16 23:17:00,-10.1667,123.5833,77.0,77.0,77.0,Clouds,few clouds,100,20,2.3
439,Zhaotong,CN,2021-03-16 23:17:00,27.3167,103.7167,51.12,51.12,51.12,Clouds,scattered clouds,91,34,1.3
440,Mazara Del Vallo,IT,2021-03-16 23:17:00,37.6641,12.588,43.86,39.99,50.0,Clouds,few clouds,93,20,10.36
441,Kassala,SD,2021-03-16 23:17:01,15.451,36.4,79.07,79.07,79.07,Clear,clear sky,49,2,9.35
442,Kaputa,ZM,2021-03-16 23:17:01,-8.4689,29.6619,67.08,67.08,67.08,Clouds,overcast clouds,86,100,3.18
443,San Borja,BO,2021-03-16 23:17:01,-14.8167,-66.85,79.39,79.39,79.39,Clouds,overcast clouds,84,90,3.83
444,High Level,CA,2021-03-16 23:17:02,58.5169,-117.136,48.2,48.2,48.2,Clouds,scattered clouds,29,40,9.22
445,Bintulu,MY,2021-03-16 23:17:02,3.1667,113.0333,73.2,73.0,73.4,Clouds,few clouds,94,20,3.44
446,Jovellar,PH,2021-03-16 23:17:03,13.0695,123.5999,77.81,77.81,77.81,Clouds,broken clouds,90,67,3.11
447,Arman,RU,2021-03-16 23:17:03,59.7,150.1667,10.56,10.56,10.56,Clear,clear sky,64,0,11.03
448,Mujiayingzi,CN,2021-03-16 23:17:03,42.1167,118.7833,29.8,29.8,29.8,Clear,clear sky,30,0,2.62
449,Chifeng,CN,2021-03-16 23:17:04,42.2683,118.9636,28.89,28.89,28.89,Clear,clear sky,32,0,2.95
450,Osa,RU,2021-03-16 23:17:04,57.2829,55.4567,22.15,22.15,22.15,Snow,snow,88,100,12.75
451,Huilong,CN,2021-03-16 23:17:05,31.8111,121.655,49.14,48.0,51.01,Clouds,overcast clouds,79,97,5.01
452,Khetri,IN,2021-03-16 23:17:05,27.9833,75.8,66.97,66.97,66.97,Clear,clear sky,32,10,2.46
453,Yerbogachen,RU,2021-03-16 23:17:05,61.2767,108.0108,15.03,15.03,15.03,Snow,light snow,93,100,10.63
454,Gamba,GA,2021-03-16 23:17:06,-2.65,10.0,77.74,77.74,77.74,Clouds,overcast clouds,83,100,3.67
455,Verkhoyansk,RU,2021-03-16 23:17:06,67.5447,133.385,-5.17,-5.17,-5.17,Clouds,overcast clouds,82,98,4.0
456,Tomatlan,MX,2021-03-16 23:17:06,19.9333,-105.25,81.82,81.82,81.82,Clear,clear sky,37,0,9.8
457,Poli,TZ,2021-03-16 23:17:07,-3.3333,36.8,71.46,68.0,75.2,Clouds,few clouds,60,20,18.41
458,Iquique,CL,2021-03-16 23:12:14,-20.2208,-70.1431,73.4,73.4,73.4,Clouds,scattered clouds,56,40,12.66
459,Henties Bay,NA,2021-03-16 23:17:07,-22.116,14.2845,62.01,62.01,62.01,Clear,clear sky,88,3,1.01
460,Sao Jose Da Coroa Grande,BR,2021-03-16 23:17:07,-8.8978,-35.1478,77.68,77.68,77.68,Clear,clear sky,76,0,8.39
461,Armstrong,AR,2021-03-16 23:15:19,-32.7822,-61.6022,64.99,64.99,64.99,Clouds,broken clouds,95,64,1.01
462,Saint-Pierre,RE,2021-03-16 23:17:08,-21.3393,55.4781,73.13,69.01,75.2,Clear,clear sky,64,0,5.75
463,Oneida,US,2021-03-16 23:17:08,43.2001,-75.4663,35.4,30.99,44.6,Clouds,overcast clouds,26,90,9.22
464,Loja,EC,2021-03-16 23:17:08,-3.9931,-79.2042,58.62,58.62,58.62,Rain,light rain,93,99,1.61
465,Kasongo,CD,2021-03-16 23:17:09,-4.45,26.6667,68.11,68.11,68.11,Rain,light rain,97,100,1.63
466,Kashary,RU,2021-03-16 23:17:09,49.04,41.0056,33.93,33.93,33.93,Snow,light snow,73,99,15.1
467,Adrar,MR,2021-03-16 23:17:09,20.5022,-10.0711,72.82,72.82,72.82,Clear,clear sky,14,0,9.37
468,Baykit,RU,2021-03-16 23:17:10,61.67,96.37,11.53,11.53,11.53,Clouds,overcast clouds,96,100,3.76
469,Maxixe,MZ,2021-03-16 23:17:10,-23.8597,35.3472,74.48,74.48,74.48,Clear,clear sky,89,0,5.66
470,Svetlogorsk,BY,2021-03-16 23:17:10,52.6333,29.7333,34.02,34.02,34.02,Clouds,overcast clouds,96,100,6.33
471,Safita,SY,2021-03-16 23:17:11,34.8205,36.1153,49.64,37.99,55.0,Clouds,overcast clouds,81,86,1.01
472,Sao Filipe,CV,2021-03-16 23:17:11,14.8961,-24.4956,72.41,72.41,72.41,Clear,clear sky,68,0,12.97
473,Tiznit,MA,2021-03-16 23:17:11,29.5833,-9.5,64.24,64.24,64.24,Clear,clear sky,51,9,1.21
474,Terrace,CA,2021-03-16 23:17:12,54.5163,-128.6035,37.4,37.4,37.4,Rain,light rain,93,90,9.22
475,Asau,RO,2021-03-16 23:17:12,46.4333,26.4,37.99,37.99,37.99,Rain,light rain,67,100,10.22
476,La Rioja,ES,2021-03-16 23:17:12,42.25,-2.5,45.84,44.6,46.99,Clouds,scattered clouds,81,40,9.22
477,Lere,NG,2021-03-16 23:17:13,10.387,8.5726,75.34,75.34,75.34,Clouds,overcast clouds,21,96,3.11
478,Seoul,KR,2021-03-16 23:14:28,37.5683,126.9778,31.98,30.2,33.8,Clear,clear sky,69,0,3.44
479,Hoima,UG,2021-03-16 23:17:13,1.4356,31.3436,68.29,68.29,68.29,Rain,light rain,78,97,1.41
480,Dicabisagan,PH,2021-03-16 23:17:14,17.0818,122.4157,77.49,77.49,77.49,Clouds,broken clouds,83,62,2.17
481,Guadalupe Y Calvo,MX,2021-03-16 23:17:14,26.1,-106.9667,58.41,58.41,58.41,Clear,clear sky,9,0,16.51
482,Cururupu,BR,2021-03-16 23:17:14,-1.8283,-44.8683,75.63,75.63,75.63,Clouds,overcast clouds,92,86,3.29
483,Lichuan,CN,2021-03-16 23:17:15,30.3,108.85,52.09,52.09,52.09,Clouds,overcast clouds,97,95,4.03
484,Praia Da Vitoria,PT,2021-03-16 23:17:15,38.7333,-27.0667,59.43,59.0,60.01,Clouds,broken clouds,94,75,17.52
485,Balabac,PH,2021-03-16 23:17:15,7.9868,117.0645,79.48,79.48,79.48,Clouds,broken clouds,78,84,2.59
486,Ocampo,MX,2021-03-16 23:17:16,21.65,-101.5,75.79,75.79,75.79,Clear,clear sky,10,8,19.86
487,Ileza,RU,2021-03-16 23:17:16,61.0533,43.9002,25.52,25.52,25.52,Clouds,overcast clouds,98,88,4.52
488,Lundazi,ZM,2021-03-16 23:17:16,-12.2929,33.1782,62.73,62.73,62.73,Clouds,overcast clouds,92,96,4.79
489,Constitucion,CL,2021-03-16 23:17:17,-35.3333,-72.4167,58.64,58.64,58.64,Clouds,scattered clouds,79,27,12.73
490,Saint-Georges,GD,2021-03-16 23:17:17,12.0564,-61.7485,78.8,78.8,78.8,Clouds,few clouds,78,20,17.27
491,Alexandria,EG,2021-03-16 23:15:36,31.2156,29.9553,57.2,57.2,57.2,Clear,clear sky,72,0,5.75
492,Hauge,NO,2021-03-16 23:17:18,58.3436,6.2812,34.38,34.0,35.01,Clouds,few clouds,72,11,6.69
493,Mobara,JP,2021-03-16 23:17:18,35.4167,140.3,53.89,53.01,55.0,Clouds,few clouds,50,20,9.22
494,Svetlyy,RU,2021-03-16 23:17:18,54.675,20.1347,33.39,33.01,33.8,Fog,fog,100,90,8.95
495,Rovaniemi,FI,2021-03-16 23:17:18,66.5,25.7167,14.0,14.0,14.0,Clear,clear sky,73,0,9.22
496,Gatton,AU,2021-03-16 23:17:19,-27.55,152.2833,64.24,60.01,68.0,Rain,light rain,88,90,4.61
497,Keetmanshoop,NA,2021-03-16 23:17:19,-26.5833,18.1333,69.8,69.8,69.8,Clear,clear sky,43,0,4.61
498,Santa Lucia,ES,2021-03-16 23:17:19,27.9117,-15.5407,63.79,63.0,64.4,Clouds,few clouds,68,20,18.41
499,Vostok,RU,2021-03-16 23:17:20,46.4856,135.8833,19.45,19.45,19.45,Snow,light snow,93,100,5.75
500,Fayaoue,NC,2021-03-16 23:17:20,-20.65,166.5333,79.27,79.27,79.27,Clouds,few clouds,76,24,9.86
501,Bandundu,CD,2021-03-16 23:17:20,-3.3167,17.3667,71.82,71.82,71.82,Rain,moderate rain,94,100,4.38
502,Horta,PT,2021-03-16 23:17:21,38.5333,-28.6333,61.2,61.2,61.2,Clouds,overcast clouds,90,96,22.88
503,Hovd,MN,2021-03-16 23:17:21,48.0056,91.6419,18.59,18.59,18.59,Clouds,broken clouds,55,66,4.45
504,Iralaya,HN,2021-03-16 23:17:21,15.0,-83.2333,82.4,82.4,82.4,Clouds,few clouds,78,20,10.36
505,Port Lincoln,AU,2021-03-16 23:15:21,-34.7333,135.8667,64.54,64.54,64.54,Clouds,scattered clouds,84,26,10.07
506,Breves,BR,2021-03-16 23:17:07,-1.6822,-50.4803,75.6,75.6,75.6,Clouds,broken clouds,94,61,4.81
507,Lydenburg,ZA,2021-03-16 23:17:22,-25.0978,30.4597,70.0,70.0,70.0,Clouds,few clouds,94,18,1.99
508,Lalibela,ET,2021-03-16 23:17:22,12.0333,39.0333,61.36,61.36,61.36,Clouds,scattered clouds,36,39,7.58
509,San Quintin,MX,2021-03-16 23:17:23,30.4833,-115.95,57.69,57.69,57.69,Clear,clear sky,58,0,19.84
510,Chernukha,RU,2021-03-16 23:17:23,55.5974,43.7556,21.54,21.54,21.54,Clouds,overcast clouds,93,100,6.87
511,Richards Bay,ZA,2021-03-16 23:14:57,-28.783,32.0377,71.89,71.89,71.89,Rain,light rain,94,67,10.96
512,Angatuba,BR,2021-03-16 23:17:24,-23.4897,-48.4128,70.68,70.68,70.68,Rain,light rain,85,3,5.61
513,Ust-Maya,RU,2021-03-16 23:17:24,60.4167,134.5333,-2.79,-2.79,-2.79,Clouds,broken clouds,96,83,1.92
514,Kununurra,AU,2021-03-16 23:17:25,-15.7667,128.7333,78.8,78.8,78.8,Clouds,overcast clouds,94,93,1.14
515,Nome,US,2021-03-16 23:17:25,64.5011,-165.4064,10.38,8.6,12.0,Snow,light snow,92,90,3.44
516,Wattegama,LK,2021-03-16 23:17:25,6.7989,81.4808,71.82,71.82,71.82,Clouds,broken clouds,92,70,4.05
517,Angouleme,FR,2021-03-16 23:17:25,45.65,0.15,51.01,50.0,52.0,Clouds,broken clouds,93,75,12.66
518,Abu Dhabi,AE,2021-03-16 23:15:17,24.4667,54.3667,72.61,71.6,73.4,Clear,clear sky,73,0,2.3
519,Nizhniy Odes,RU,2021-03-16 23:17:26,63.6445,54.856,29.03,29.03,29.03,Clouds,overcast clouds,96,100,7.14
520,Smolenka,RU,2021-03-16 23:17:26,52.1352,113.4974,10.4,10.4,10.4,Clouds,overcast clouds,72,99,2.24
521,Penzance,GB,2021-03-16 23:17:27,50.1186,-5.5371,46.51,46.0,46.99,Clouds,few clouds,81,16,14.97
522,Qiongshan,CN,2021-03-16 23:17:27,20.0058,110.3542,68.0,68.0,68.0,Mist,mist,94,4,4.47
523,Lata,PT,2021-03-16 23:17:27,40.1629,-8.3327,56.52,52.0,60.8,Clear,clear sky,48,0,4.61
524,Granadilla De Abona,ES,2021-03-16 23:17:28,28.1188,-16.576,59.74,51.01,64.99,Clouds,few clouds,67,20,10.36
525,Zeya,RU,2021-03-16 23:17:28,53.75,127.2667,5.88,5.88,5.88,Clear,clear sky,78,0,4.5
526,Pangody,RU,2021-03-16 23:17:28,65.85,74.4859,22.59,22.59,22.59,Snow,light snow,95,100,11.97
527,Kurilsk,RU,2021-03-16 23:17:29,45.2333,147.8833,30.88,30.88,30.88,Clouds,broken clouds,93,67,10.76
528,Tarko-Sale,RU,2021-03-16 23:17:29,64.9225,77.785,21.22,21.22,21.22,Snow,light snow,95,100,12.59
529,Paracuru,BR,2021-03-16 23:17:29,-3.41,-39.0306,81.0,81.0,81.0,Clouds,overcast clouds,78,88,11.99
530,Raudeberg,NO,2021-03-16 23:17:30,61.9875,5.1352,36.0,36.0,36.0,Rain,light rain,75,28,5.53
531,Trincomalee,LK,2021-03-16 23:17:30,8.5711,81.2335,80.49,80.49,80.49,Clouds,few clouds,73,19,8.81
532,Dubbo,AU,2021-03-16 23:17:30,-32.25,148.6167,66.2,66.2,66.2,Rain,light rain,68,90,17.27
533,Yenagoa,NG,2021-03-16 23:17:31,4.9247,6.2642,78.42,78.42,78.42,Clouds,overcast clouds,90,100,5.57
534,Langxiang,CN,2021-03-16 23:17:31,46.95,128.8833,16.84,16.84,16.84,Clouds,broken clouds,89,66,3.0
535,Stromness,GB,2021-03-16 23:17:18,58.965,-3.296,44.6,44.6,44.6,Clouds,broken clouds,87,75,17.27
536,Rio Brilhante,BR,2021-03-16 23:17:32,-21.8019,-54.5464,77.23,77.23,77.23,Rain,moderate rain,77,100,3.42
537,Weligama,LK,2021-03-16 23:17:32,5.9667,80.4167,75.36,75.36,75.36,Clouds,overcast clouds,88,88,4.43
538,Meadow Lake,US,2021-03-16 23:17:32,34.8014,-106.5436,43.65,42.8,44.01,Rain,light rain,33,75,16.11
539,Harindanga,IN,2021-03-16 23:17:33,22.0383,88.3214,75.2,75.2,75.2,Mist,mist,83,20,5.99
540,Anqiu,CN,2021-03-16 23:17:33,36.4342,119.1925,39.83,39.83,39.83,Clouds,broken clouds,50,84,2.84
541,Mudkhed,IN,2021-03-16 23:17:33,19.1667,77.5167,75.51,75.51,75.51,Clear,clear sky,28,3,4.27
542,Wad Rawah,SD,2021-03-16 23:17:34,15.1603,33.1397,86.07,86.07,86.07,Clear,clear sky,15,2,12.44
543,Hami,CN,2021-03-16 23:17:34,42.8,93.45,36.37,36.37,36.37,Clouds,few clouds,50,17,2.33
544,Antalaha,MG,2021-03-16 23:17:34,-14.9003,50.2788,74.8,74.8,74.8,Clouds,overcast clouds,91,100,4.74
545,Teluk Nibung,ID,2021-03-16 23:17:35,3.001,99.8164,75.06,75.06,75.06,Clouds,overcast clouds,91,87,4.05
546,Yatou,CN,2021-03-16 23:17:35,37.15,122.3833,37.35,37.35,37.35,Clouds,broken clouds,51,55,6.69
547,Sorland,NO,2021-03-16 23:17:35,67.667,12.6934,37.63,37.63,37.63,Clouds,few clouds,62,23,8.61
548,Srisailam,IN,2021-03-16 23:17:36,16.0833,78.8667,71.22,71.22,71.22,Clear,clear sky,46,0,1.45
549,Kolobrzeg,PL,2021-03-16 23:17:36,54.1757,15.5834,37.0,37.0,37.0,Clouds,broken clouds,100,69,8.37
550,Yorosso,ML,2021-03-16 23:17:37,12.3536,-4.7761,81.27,81.27,81.27,Clouds,few clouds,16,20,6.33
551,Tombouctou,ML,2021-03-16 23:17:37,20.0,-3.0,76.06,76.06,76.06,Clear,clear sky,14,0,10.96
552,Chak,PK,2021-03-16 23:17:37,27.8575,68.8329,71.6,71.6,71.6,Haze,haze,78,27,7.56
553,Ploemeur,FR,2021-03-16 23:17:38,47.7333,-3.4333,51.6,51.01,52.0,Clouds,overcast clouds,82,90,9.22
554,Hastings,GB,2021-03-16 23:17:38,50.8552,0.5729,42.8,41.0,44.01,Clouds,scattered clouds,71,45,8.01
555,Bensonville,LR,2021-03-16 23:17:38,6.4461,-10.6125,76.73,76.73,76.73,Clouds,broken clouds,90,72,4.61
556,Vanderhoof,CA,2021-03-16 23:17:38,54.0166,-124.0198,42.39,42.39,42.39,Clouds,scattered clouds,73,42,1.92
557,Muli,MV,2021-03-16 23:17:39,2.9167,73.5667,82.38,82.38,82.38,Rain,moderate rain,74,14,11.45
558,Margate,GB,2021-03-16 23:17:39,51.3813,1.3862,45.0,44.01,46.0,Clouds,scattered clouds,74,48,5.99
559,Visp,CH,2021-03-16 23:17:39,46.2937,7.8815,25.93,1.4,37.99,Snow,light snow,100,90,28.77
560,Hay River,CA,2021-03-16 23:17:40,60.8156,-115.7999,12.2,12.2,12.2,Clouds,overcast clouds,73,100,8.05
561,Eyrarbakki,IS,2021-03-16 23:17:40,63.863,-21.1481,43.23,42.01,44.6,Rain,moderate rain,87,90,12.66
562,Kozluk,TR,2021-03-16 23:17:40,38.1938,41.4885,48.2,48.2,48.2,Clouds,broken clouds,81,75,3.44
563,Sangmelima,CM,2021-03-16 23:17:41,2.9333,11.9833,66.31,66.31,66.31,Rain,light rain,98,99,4.94
564,Muriwai Beach,NZ,2021-03-16 23:17:41,-36.8167,174.45,67.66,66.99,68.0,Clear,clear sky,73,3,5.99
565,Finote Selam,ET,2021-03-16 23:17:41,10.7,37.2667,67.15,67.15,67.15,Clouds,scattered clouds,35,46,2.04
566,Chicama,PE,2021-03-16 23:17:42,-7.8447,-79.1469,73.4,73.4,73.4,Clouds,broken clouds,88,75,12.66
567,Altamira,BR,2021-03-16 23:14:12,-3.2033,-52.2064,75.7,75.7,75.7,Clouds,broken clouds,91,61,3.22
568,Aleksandrovskoye,RU,2021-03-16 23:17:42,44.7142,43.0008,36.28,35.6,37.0,Rain,light rain,100,40,4.47
569,Ordzhonikidze,KZ,2021-03-16 23:17:43,52.4411,61.7408,7.57,7.57,7.57,Clouds,scattered clouds,76,34,10.71
570,Porto Santo,PT,2021-03-16 23:17:43,33.072,-16.3415,60.8,60.8,60.8,Clouds,scattered clouds,82,40,12.66
571,Coruripe,BR,2021-03-16 23:17:43,-10.1256,-36.1756,77.43,77.43,77.43,Clear,clear sky,74,4,8.52
572,Okhotsk,RU,2021-03-16 23:17:43,59.3833,143.3,-0.87,-0.87,-0.87,Clouds,broken clouds,61,76,22.59
573,Itupiranga,BR,2021-03-16 23:17:44,-5.1347,-49.3267,78.8,78.8,78.8,Clouds,few clouds,100,20,1.52
574,Biak,ID,2021-03-16 23:17:44,-0.9131,122.8766,77.97,77.97,77.97,Clouds,broken clouds,80,63,1.05
575,Atar,MR,2021-03-16 23:16:23,20.5169,-13.0499,75.29,75.29,75.29,Clear,clear sky,13,0,7.74
576,Sawakin,SD,2021-03-16 23:17:45,19.1059,37.3321,77.85,77.85,77.85,Clear,clear sky,80,0,9.31
577,Steamboat Springs,US,2021-03-16 23:16:54,40.485,-106.8317,32.5,23.0,36.0,Snow,light snow,93,90,3.44
578,Kokkola,FI,2021-03-16 23:17:45,63.8385,23.1307,23.59,21.2,27.0,Clouds,broken clouds,93,75,3.44
579,Ulladulla,AU,2021-03-16 23:13:33,-35.35,150.4667,65.19,64.4,66.0,Clouds,broken clouds,88,75,9.22
580,Petropavlovsk-Kamchatskiy,RU,2021-03-16 23:17:46,53.0452,158.6483,37.4,37.4,37.4,Rain,light rain,93,75,11.18
581,Banikoara,BJ,2021-03-16 23:17:46,11.2985,2.4386,84.85,84.85,84.85,Clear,clear sky,20,8,2.86
582,Bonavista,CA,2021-03-16 23:17:46,48.6499,-53.1147,23.2,21.2,26.01,Snow,light snow,86,100,9.22
583,Westport,US,2021-03-16 23:17:28,41.1415,-73.3579,31.39,30.99,32.0,Clouds,overcast clouds,47,90,3.44
584,Grootfontein,NA,2021-03-16 23:17:47,-19.5667,18.1167,64.4,64.4,64.4,Rain,light rain,94,100,0.78
585,Acarau,BR,2021-03-16 23:17:47,-2.8856,-40.12,79.12,79.12,79.12,Clouds,overcast clouds,82,91,8.59
586,Lae,PG,2021-03-16 23:17:47,-6.7221,146.9847,75.2,75.2,75.2,Clouds,scattered clouds,83,40,5.75
587,Soyo,AO,2021-03-16 23:17:48,-6.1349,12.3689,79.45,79.45,79.45,Clouds,overcast clouds,79,100,1.63
588,Avram Iancu,RO,2021-03-16 23:17:48,46.3833,22.7833,30.27,30.27,30.27,Clouds,overcast clouds,95,100,3.38
589,El Guantillo,HN,2021-03-16 23:17:49,14.6,-87.3,82.02,80.01,86.0,Clouds,scattered clouds,39,40,9.22
590,Pochutla,MX,2021-03-16 23:17:49,15.7432,-96.4661,86.54,86.0,87.01,Clouds,scattered clouds,58,40,23.02
591,Leningradskiy,RU,2021-03-16 23:17:49,69.3833,178.4167,-0.4,-0.4,-0.4,Snow,light snow,94,100,16.33
592,Chahuites,MX,2021-03-16 23:17:50,16.2833,-94.1833,85.28,85.28,85.28,Clear,clear sky,59,0,9.89
593,Ambulu,ID,2021-03-16 23:17:31,-8.345,113.6058,75.7,75.7,75.7,Clouds,overcast clouds,90,85,3.15
594,Mocuba,MZ,2021-03-16 23:17:50,-16.8392,36.9856,69.46,69.46,69.46,Clear,clear sky,97,0,1.97
595,Flinders,AU,2021-03-16 23:17:50,-34.5833,150.8552,66.99,66.99,66.99,Clouds,overcast clouds,80,99,1.01
596,Xining,CN,2021-03-16 23:17:51,36.6167,101.7667,36.72,36.72,36.72,Clouds,overcast clouds,48,85,3.36
597,Paso De Los Toros,UY,2021-03-16 23:17:51,-32.8167,-56.5167,68.81,68.81,68.81,Clouds,overcast clouds,90,100,12.24
598,Kasongo-Lunda,CD,2021-03-16 23:17:51,-6.4667,16.8167,67.91,67.91,67.91,Clouds,overcast clouds,95,97,0.31
599,Aquiraz,BR,2021-03-16 23:17:52,-3.9014,-38.3911,81.48,80.6,82.0,Clouds,scattered clouds,83,40,4.61
600,Kanie,JP,2021-03-16 23:17:52,35.1333,136.8,51.6,48.99,54.0,Clouds,few clouds,62,20,24.16
601,Umarkot,PK,2021-03-16 23:17:52,25.3616,69.7362,74.71,74.71,74.71,Clouds,overcast clouds,46,97,11.92
602,Razole,IN,2021-03-16 23:17:53,16.4833,81.8333,70.09,70.09,70.09,Clear,clear sky,93,0,2.37
603,Nuuk,GL,2021-03-16 23:16:05,64.1835,-51.7216,15.8,15.8,15.8,Snow,light snow,73,75,10.36
604,Mattawa,US,2021-03-16 23:17:53,46.7379,-119.9028,56.89,55.4,57.99,Clear,clear sky,33,1,8.05
605,Hobyo,SO,2021-03-16 23:17:54,5.3505,48.5268,80.6,80.6,80.6,Clouds,overcast clouds,78,94,14.9
606,Zhicheng,CN,2021-03-16 23:17:54,30.2956,111.5047,51.76,50.0,54.0,Clouds,overcast clouds,90,88,2.62
607,Muncar,ID,2021-03-16 23:17:54,-8.4333,114.3333,75.45,75.45,75.45,Clouds,broken clouds,90,77,3.33
608,Porto De Moz,BR,2021-03-16 23:17:55,-1.7483,-52.2383,77.72,77.72,77.72,Clouds,overcast clouds,84,93,4.07
609,San Jose De Guanipa,VE,2021-03-16 23:17:55,8.8872,-64.1651,82.08,82.08,82.08,Clouds,broken clouds,56,51,13.15
610,Viedma,AR,2021-03-16 23:17:55,-40.8135,-62.9967,57.96,57.96,57.96,Clouds,overcast clouds,66,100,27.29
611,Ous,RU,2021-03-16 23:17:56,60.9058,61.5186,26.02,26.02,26.02,Clouds,overcast clouds,87,95,9.04
612,Itaituba,BR,2021-03-16 23:17:56,-4.2761,-55.9836,80.6,80.6,80.6,Clouds,scattered clouds,83,40,2.53
613,Taseyevo,RU,2021-03-16 23:17:56,57.2169,94.8978,6.33,6.33,6.33,Clouds,broken clouds,95,80,4.76
614,Abha,SA,2021-03-16 23:17:57,18.2164,42.5053,60.69,59.0,62.6,Clear,clear sky,41,0,1.81
615,Surenavan,AM,2021-03-16 23:17:57,39.75,44.8,48.2,48.2,48.2,Clouds,few clouds,71,20,5.75
616,Kanigoro,ID,2021-03-16 23:17:57,-8.13,112.219,72.82,72.82,72.82,Clouds,broken clouds,92,71,2.17
617,Esperance,AU,2021-03-16 23:17:58,-33.8667,121.9,62.6,62.6,62.6,Clouds,broken clouds,67,84,17.27
618,Wanning,CN,2021-03-16 23:16:53,18.8003,110.3967,69.87,69.87,69.87,Clouds,few clouds,92,18,0.56
619,Madison,US,2021-03-16 23:14:25,34.7334,-86.5667,62.73,61.0,64.99,Clouds,scattered clouds,88,40,5.75
620,Puerto Madero,MX,2021-03-16 23:17:58,14.7208,-92.4215,84.2,84.2,84.2,Clouds,broken clouds,65,75,9.22
621,Kashi,CN,2021-03-16 23:17:58,39.4547,75.9797,48.2,48.2,48.2,Dust,dust,40,40,4.47
622,Omboue,GA,2021-03-16 23:17:59,-1.5746,9.2618,76.66,76.66,76.66,Rain,light rain,88,76,5.86
623,Piracuruca,BR,2021-03-16 23:17:59,-3.9281,-41.7092,74.77,74.77,74.77,Clouds,broken clouds,94,62,4.16
624,Sonamura,IN,2021-03-16 23:17:59,23.4719,91.2664,67.55,67.55,67.55,Clear,clear sky,42,0,3.27
625,Samoded,RU,2021-03-16 23:18:00,63.6083,40.5111,26.65,26.65,26.65,Snow,snow,97,98,3.33
626,Kenai,US,2021-03-16 23:18:00,60.5544,-151.2583,27.34,26.6,28.4,Clear,clear sky,46,1,5.75
627,Fereydunshahr,IR,2021-03-16 23:18:00,32.941,50.121,36.37,36.37,36.37,Clouds,overcast clouds,69,91,4.14
628,Bagaha,IN,2021-03-16 23:18:01,27.1,84.0833,61.05,61.05,61.05,Clear,clear sky,27,0,4.05
629,Yarada,IN,2021-03-16 23:18:01,17.65,83.2667,77.02,77.02,77.02,Clear,clear sky,77,0,4.25
630,Juba,SS,2021-03-16 23:18:02,4.8517,31.5825,79.25,79.25,79.25,Clouds,overcast clouds,51,100,5.59
631,Mackay,AU,2021-03-16 23:18:02,-21.15,149.2,80.76,80.6,81.0,Clouds,scattered clouds,78,40,12.66
632,Krasnokholmskiy,RU,2021-03-16 23:18:02,55.9873,55.0466,15.69,15.69,15.69,Clouds,overcast clouds,86,100,11.1
633,Chirongui,YT,2021-03-16 23:18:03,-12.9319,45.1483,78.8,78.8,78.8,Clear,clear sky,89,0,3.44
634,Williston,US,2021-03-16 23:18:03,48.147,-103.618,34.65,34.0,35.01,Clouds,overcast clouds,89,100,4.0
635,Oyama,JP,2021-03-16 23:18:03,36.3,139.8,54.9,51.8,57.0,Clouds,few clouds,46,20,8.05
636,Yurty,RU,2021-03-16 23:18:03,56.0498,97.6348,4.55,4.55,4.55,Clouds,broken clouds,94,68,4.76
637,Aswan,EG,2021-03-16 23:18:04,24.0934,32.907,72.43,72.43,72.43,Clouds,broken clouds,30,56,13.65
638,Parasia,IN,2021-03-16 23:18:04,22.2,78.7667,71.85,71.85,71.85,Clouds,scattered clouds,30,25,3.69
639,Sanger,US,2021-03-16 23:18:05,36.708,-119.556,56.1,55.4,57.0,Clouds,scattered clouds,47,40,2.35
640,Kargasok,RU,2021-03-16 23:18:05,59.0556,80.8572,14.67,14.67,14.67,Clouds,overcast clouds,95,98,8.37
641,Mosetse,BW,2021-03-16 23:18:06,-20.75,26.65,73.38,73.38,73.38,Clouds,broken clouds,49,79,7.23
642,Manakara,MG,2021-03-16 23:18:06,-22.1333,48.0167,74.43,74.43,74.43,Rain,light rain,90,78,2.04
643,Noumea,NC,2021-03-16 23:18:07,-22.2763,166.4572,84.07,84.0,84.2,Clear,clear sky,61,0,5.75
644,Cordoba,AR,2021-03-16 23:15:13,-31.4135,-64.1811,71.19,68.0,73.0,Clear,clear sky,56,0,9.22
645,East Massapequa,US,2021-03-16 23:18:07,40.6734,-73.4365,33.85,32.0,36.0,Clouds,overcast clouds,60,90,6.91
646,Fez,MA,2021-03-16 23:18:08,34.0372,-4.9998,55.4,55.4,55.4,Clear,clear sky,62,0,5.75
647,Mayo,US,2021-03-16 23:18:08,38.8876,-76.5119,42.12,41.0,44.01,Clouds,overcast clouds,70,90,10.36
648,Anloga,GH,2021-03-16 23:18:08,5.7947,0.8973,82.4,82.4,82.4,Clouds,few clouds,83,20,10.36
649,Barranca,PE,2021-03-16 23:18:09,-10.75,-77.7667,72.79,72.79,72.79,Clouds,overcast clouds,79,99,8.05
650,Itarema,BR,2021-03-16 23:17:41,-2.9248,-39.9167,78.85,78.85,78.85,Clouds,overcast clouds,81,91,8.08
651,Kailua,US,2021-03-16 23:18:09,21.4022,-157.7394,73.36,69.01,78.8,Rain,light rain,83,90,23.02
652,San Rafael,AR,2021-03-16 23:18:10,-34.6177,-68.3301,69.66,69.66,69.66,Clouds,broken clouds,44,66,9.75
653,Nago,JP,2021-03-16 23:18:06,26.5881,127.9761,68.58,68.0,69.8,Mist,mist,94,20,3.44
654,Auki,SB,2021-03-16 23:18:10,-8.7676,160.7034,84.54,84.54,84.54,Clear,clear sky,65,3,3.51
655,Narragansett,US,2021-03-16 23:18:11,41.4501,-71.4495,30.97,30.0,32.0,Clouds,overcast clouds,47,90,5.75
656,Acurenam,GQ,2021-03-16 23:18:11,1.0322,10.6488,68.05,68.05,68.05,Rain,moderate rain,98,76,3.02
657,Gombong,ID,2021-03-16 23:18:11,-7.6072,109.5142,74.84,74.84,74.84,Clouds,scattered clouds,86,48,2.06
658,Suntar,RU,2021-03-16 23:18:12,62.1444,117.6319,10.85,10.85,10.85,Clouds,broken clouds,93,84,7.65
659,Riberalta,BO,2021-03-16 23:18:12,-10.9833,-66.1,84.2,84.2,84.2,Clouds,broken clouds,74,75,2.86
660,Bollnas,SE,2021-03-16 23:18:12,61.3482,16.3946,30.0,30.0,30.0,Clouds,few clouds,79,16,1.01
661,Leh,IN,2021-03-16 23:18:13,34.1667,77.5833,20.88,20.88,20.88,Clouds,broken clouds,66,57,4.59
662,Huarmey,PE,2021-03-16 23:18:13,-10.0681,-78.1522,74.84,74.84,74.84,Clouds,broken clouds,76,63,9.4
663,Zhangzhou,CN,2021-03-16 23:18:13,24.5133,117.6556,68.0,68.0,68.0,Mist,mist,83,75,4.47
664,Tokmak,UA,2021-03-16 23:18:14,47.2514,35.7058,43.79,43.79,43.79,Clouds,overcast clouds,88,100,20.92
665,Topolobampo,MX,2021-03-16 23:18:14,25.6,-109.05,77.63,75.0,81.0,Clear,clear sky,25,1,13.8
666,Serenje,ZM,2021-03-16 23:18:14,-13.2325,30.2352,61.43,61.43,61.43,Clouds,broken clouds,98,73,5.06
667,Gura Calitei,RO,2021-03-16 23:18:15,45.5833,27.0167,42.67,42.67,42.67,Rain,light rain,88,100,20.6
668,Honiara,SB,2021-03-16 23:18:15,-9.4333,159.95,84.45,84.45,84.45,Clouds,scattered clouds,69,37,3.0
669,Wawa,NG,2021-03-16 23:18:15,9.9022,4.4192,86.04,86.04,86.04,Clouds,broken clouds,33,75,3.83
670,Omaha,US,2021-03-16 23:16:10,41.2586,-95.9378,44.85,43.0,46.4,Clouds,overcast clouds,87,90,6.91
671,Lastoursville,GA,2021-03-16 23:18:16,-0.8143,12.7287,71.64,71.64,71.64,Clouds,overcast clouds,95,91,2.08
672,Sedan,FR,2021-03-16 23:18:16,49.6667,5.0,41.0,41.0,41.0,Clouds,overcast clouds,97,100,5.99
673,Ginir,ET,2021-03-16 23:18:16,7.1333,40.7,60.17,60.17,60.17,Clouds,few clouds,63,23,4.92
674,Necochea,AR,2021-03-16 23:18:17,-38.5473,-58.7368,64.0,64.0,64.0,Rain,light rain,97,100,8.99
675,Cabedelo,BR,2021-03-16 23:16:47,-6.9811,-34.8339,77.0,77.0,77.0,Clouds,few clouds,83,20,4.61
676,Milkovo,RU,2021-03-16 23:18:17,54.7167,158.6167,30.94,30.94,30.94,Clouds,overcast clouds,92,98,8.63
677,Chama,CH,2021-03-16 23:18:17,47.1821,8.4636,33.51,30.0,36.0,Rain,light rain,93,20,2.3
678,Abalak,RU,2021-03-16 23:18:18,58.1286,68.5944,20.93,20.93,20.93,Clouds,overcast clouds,94,100,8.46
679,Buchanan,LR,2021-03-16 23:18:18,5.8808,-10.0467,79.03,79.03,79.03,Clouds,broken clouds,88,64,7.4
680,Marshall,US,2021-03-16 23:17:33,34.3834,-86.3333,55.9,53.6,57.0,Clouds,overcast clouds,94,90,3.44
681,Preili,LV,2021-03-16 23:18:19,56.2944,26.7246,33.12,33.12,33.12,Clouds,overcast clouds,96,100,6.82
