City_ID,City,Country,Date,Lat,Lng,Temp,Min Temp,Max Temp,Current Description,Current Details,Humidity,Cloudiness,Wind Speed
0,Bredasdorp,ZA,2021-03-15 14:50:56,-34.5322,20.0403,64.0,64.0,64.0,Clouds,overcast clouds,91,96,1.99
1,Chuy,UY,2021-03-15 14:50:56,-33.6971,-53.4616,76.44,76.44,76.44,Clear,clear sky,61,8,9.4
2,Leningradskiy,RU,2021-03-15 14:50:57,69.3833,178.4167,-7.13,-7.13,-7.13,Clouds,overcast clouds,91,99,3.22
3,Sangar,RU,2021-03-15 14:50:57,63.9242,127.4739,-18.6,-18.6,-18.6,Clouds,broken clouds,95,65,0.54
4,Hermanus,ZA,2021-03-15 14:50:57,-34.4187,19.2345,64.0,64.0,64.0,Clouds,overcast clouds,91,96,1.99
5,Bubaque,GW,2021-03-15 14:50:58,11.2833,-15.8333,79.29,79.29,79.29,Clear,clear sky,52,0,10.92
6,Nome,US,2021-03-15 14:50:58,64.5011,-165.4064,19.4,19.4,19.4,Clouds,overcast clouds,93,90,12.66
7,Busselton,AU,2021-03-15 14:50:58,-33.65,115.3333,61.0,61.0,61.0,Clear,clear sky,52,0,7.58
8,Bethel,US,2021-03-15 14:47:26,41.3712,-73.414,21.27,19.99,23.0,Clear,clear sky,23,1,19.57
9,Jamestown,US,2021-03-15 14:48:00,42.097,-79.2353,23.9,19.4,28.0,Clear,clear sky,45,1,9.66
10,Linjiang,CN,2021-03-15 14:50:59,41.8069,126.9078,28.38,28.38,28.38,Clear,clear sky,81,1,4.34
11,Avarua,CK,2021-03-15 14:50:59,-21.2078,-159.775,75.2,75.2,75.2,Rain,heavy intensity rain,94,75,13.8
12,Torbay,CA,2021-03-15 14:51:00,47.6666,-52.7314,29.07,26.01,30.99,Snow,light snow,63,40,17.27
13,Yellowknife,CA,2021-03-15 14:48:54,62.456,-114.3525,-9.13,-9.4,-9.0,Clouds,few clouds,84,20,8.05
14,Kaitangata,NZ,2021-03-15 14:51:00,-46.2817,169.8464,53.01,53.01,53.01,Clouds,broken clouds,70,63,1.99
15,Waingapu,ID,2021-03-15 14:51:01,-9.6567,120.2641,79.16,79.16,79.16,Clouds,overcast clouds,85,97,1.72
16,Saint-Philippe,RE,2021-03-15 14:51:01,-21.3585,55.7679,78.19,68.0,84.2,Clear,clear sky,61,0,6.91
17,Mahebourg,MU,2021-03-15 14:51:01,-20.4081,57.7,78.8,78.8,78.8,Clouds,broken clouds,89,75,10.36
18,Oussouye,SN,2021-03-15 14:51:02,12.485,-16.5469,100.4,100.4,100.4,Clear,clear sky,16,0,2.3
19,Vaini,TO,2021-03-15 14:46:07,-21.2,-175.2,73.4,73.4,73.4,Clouds,broken clouds,94,75,2.3
20,Khatanga,RU,2021-03-15 14:51:02,71.9667,102.5,-21.3,-21.3,-21.3,Clouds,overcast clouds,96,100,9.93
21,Rikitea,PF,2021-03-15 14:51:03,-23.1203,-134.9692,80.62,80.62,80.62,Clouds,broken clouds,71,60,2.8
22,Ribeira Grande,PT,2021-03-15 14:51:03,38.5167,-28.7,62.6,62.6,62.6,Clouds,scattered clouds,88,40,6.91
23,Bengkulu,ID,2021-03-15 14:51:03,-3.8004,102.2655,79.16,79.16,79.16,Clouds,overcast clouds,80,87,2.48
24,Chokurdakh,RU,2021-03-15 14:51:04,70.6333,147.9167,-12.77,-12.77,-12.77,Clouds,overcast clouds,89,100,6.4
25,Hofn,IS,2021-03-15 14:51:04,64.2539,-15.2082,37.4,37.4,37.4,Rain,light rain,87,90,5.75
26,Szydlowiec,PL,2021-03-15 14:51:05,51.2282,20.8611,45.54,42.01,48.99,Clouds,broken clouds,1,62,4.03
27,Caravelas,BR,2021-03-15 14:51:05,-17.7125,-39.2481,85.64,85.64,85.64,Clouds,scattered clouds,56,29,7.52
28,Sisimiut,GL,2021-03-15 14:51:05,66.9395,-53.6735,8.71,8.71,8.71,Clouds,overcast clouds,84,85,13.71
29,East London,ZA,2021-03-15 14:51:06,-33.0153,27.9116,77.0,77.0,77.0,Clear,clear sky,78,0,10.36
30,Georgetown,MY,2021-03-15 14:51:06,5.4112,100.3354,84.81,84.0,86.0,Clouds,few clouds,70,20,4.61
31,Puerto Rico,AR,2021-03-15 14:51:07,-26.796,-55.024,98.51,98.51,98.51,Rain,light rain,30,28,1.66
32,Wanaka,NZ,2021-03-15 14:51:07,-44.7,169.15,50.05,50.05,50.05,Clouds,scattered clouds,88,40,8.14
33,Rincon,US,2021-03-15 14:51:07,32.296,-81.2354,67.5,66.2,68.0,Clouds,broken clouds,45,75,16.11
34,Praia Da Vitoria,PT,2021-03-15 14:51:08,38.7333,-27.0667,64.4,62.01,66.2,Clouds,scattered clouds,72,40,8.14
35,Hobart,AU,2021-03-15 14:51:08,-42.8794,147.3294,48.97,46.99,51.01,Clouds,broken clouds,71,75,3.44
36,Pacific Grove,US,2021-03-15 14:46:50,36.6177,-121.9166,44.74,43.0,46.0,Clouds,broken clouds,84,51,5.01
37,Xai-Xai,MZ,2021-03-15 14:51:09,-25.0519,33.6442,79.66,79.66,79.66,Clear,clear sky,72,1,6.2
38,Havoysund,NO,2021-03-15 14:51:09,70.9963,24.6622,28.4,28.4,28.4,Snow,light snow,86,75,14.97
39,Homestead,US,2021-03-15 14:49:22,25.4687,-80.4776,77.5,75.2,79.0,Clouds,broken clouds,73,75,3.44
40,Belaya Gora,RU,2021-03-15 14:51:09,68.5333,146.4167,-8.91,-8.91,-8.91,Clouds,overcast clouds,77,100,3.42
41,Mataura,NZ,2021-03-15 14:51:10,-46.1927,168.8643,50.0,50.0,50.0,Rain,moderate rain,92,93,5.99
42,Henties Bay,NA,2021-03-15 14:51:10,-22.116,14.2845,68.0,68.0,68.0,Clear,clear sky,79,1,11.99
43,La Ronge,CA,2021-03-15 14:51:11,55.1001,-105.2842,36.5,35.6,37.4,Clouds,few clouds,64,13,9.22
44,Arkhangelsk,RU,2021-03-15 14:46:15,64.5401,40.5433,32.0,32.0,32.0,Snow,snow,86,90,4.47
45,Namibe,AO,2021-03-15 14:51:11,-15.1961,12.1522,86.0,86.0,86.0,Clouds,broken clouds,62,75,17.27
46,Ponta Do Sol,PT,2021-03-15 14:51:12,32.6667,-17.1,65.75,64.0,68.0,Clouds,few clouds,60,20,16.11
47,Albany,US,2021-03-15 14:47:57,42.6001,-73.9662,18.82,18.0,19.99,Clear,clear sky,29,0,4.0
48,Kuusamo,FI,2021-03-15 14:51:12,65.9667,29.1833,32.0,32.0,32.0,Clouds,overcast clouds,74,90,2.3
49,Chardara,KZ,2021-03-15 14:51:12,41.2547,67.9692,35.65,35.65,35.65,Clouds,overcast clouds,57,94,13.4
50,Carnarvon,AU,2021-03-15 14:51:13,-24.8667,113.6333,78.8,78.8,78.8,Clouds,scattered clouds,78,40,4.61
51,Quime,BO,2021-03-15 14:51:13,-16.9833,-67.2167,55.92,55.92,55.92,Rain,light rain,84,100,5.79
52,Lorengau,PG,2021-03-15 14:51:13,-2.0226,147.2712,82.81,82.81,82.81,Clouds,overcast clouds,66,94,5.06
53,Kodiak,US,2021-03-15 14:48:35,57.79,-152.4072,30.2,30.2,30.2,Clouds,broken clouds,69,75,5.75
54,Lompoc,US,2021-03-15 14:51:14,34.6391,-120.4579,42.33,37.99,46.4,Clouds,overcast clouds,81,90,10.36
55,Atuona,PF,2021-03-15 14:48:55,-9.8,-139.0333,79.21,79.21,79.21,Clouds,broken clouds,75,71,15.17
56,Nikolskoye,RU,2021-03-15 14:51:14,59.7035,30.7861,34.5,33.01,35.6,Snow,snow,87,90,8.95
57,Halvad,IN,2021-03-15 14:51:15,23.0167,71.1833,75.36,75.36,75.36,Clear,clear sky,25,0,2.82
58,Kytmanovo,RU,2021-03-15 14:51:15,53.4593,85.4479,10.6,10.6,10.6,Clouds,overcast clouds,95,100,6.67
59,Belyy Yar,RU,2021-03-15 14:51:16,53.6039,91.3903,15.8,15.8,15.8,Clouds,overcast clouds,73,100,2.24
60,Mehamn,NO,2021-03-15 14:51:16,71.0357,27.8492,30.2,30.2,30.2,Clouds,broken clouds,69,75,21.85
61,Bathsheba,BB,2021-03-15 14:51:16,13.2167,-59.5167,82.4,82.4,82.4,Clouds,scattered clouds,65,40,16.11
62,Livramento,BR,2021-03-15 14:51:17,-3.0254,-60.1803,84.2,84.2,84.2,Clouds,broken clouds,70,75,6.91
63,Monrovia,LR,2021-03-15 14:51:17,6.3005,-10.7969,82.4,82.4,82.4,Rain,light rain,74,75,3.44
64,Puerto Ayora,EC,2021-03-15 14:51:10,-0.7393,-90.3518,82.11,80.6,82.99,Clouds,scattered clouds,83,40,6.91
65,Kavieng,PG,2021-03-15 14:51:18,-2.5744,150.7967,81.3,81.3,81.3,Rain,moderate rain,76,65,7.76
66,Cape Town,ZA,2021-03-15 14:50:47,-33.9258,18.4232,65.73,64.0,68.0,Rain,light rain,88,75,17.27
67,Zhanaozen,KZ,2021-03-15 14:51:18,43.3,52.8,34.84,34.84,34.84,Clouds,few clouds,40,23,15.7
68,Punta Arenas,CL,2021-03-15 14:51:18,-53.15,-70.9167,50.0,50.0,50.0,Clouds,scattered clouds,71,40,35.68
69,Narsaq,GL,2021-03-15 14:51:19,60.9167,-46.05,41.0,41.0,41.0,Clouds,broken clouds,33,75,25.32
70,Castro,BR,2021-03-15 14:51:19,-24.7911,-50.0119,78.94,78.94,78.94,Clear,clear sky,61,6,1.7
71,Seoul,KR,2021-03-15 14:50:22,37.5683,126.9778,51.21,50.0,53.6,Mist,mist,93,90,6.91
72,Port Elizabeth,ZA,2021-03-15 14:49:35,-33.918,25.5701,71.6,71.6,71.6,Clear,clear sky,78,0,24.16
73,Katangli,RU,2021-03-15 14:51:20,51.7102,143.2326,27.59,27.59,27.59,Clear,clear sky,80,0,4.63
74,Upernavik,GL,2021-03-15 14:51:20,72.7868,-56.1549,-5.66,-5.66,-5.66,Clouds,overcast clouds,95,87,11.25
75,Kloulklubed,PW,2021-03-15 14:51:21,7.0419,134.2556,78.8,78.8,78.8,Clouds,broken clouds,89,75,5.75
76,Pangody,RU,2021-03-15 14:51:21,65.85,74.4859,16.61,16.61,16.61,Snow,light snow,95,100,6.73
77,Sfantu Gheorghe,RO,2021-03-15 14:51:21,45.8667,25.7833,47.86,46.99,48.99,Clouds,overcast clouds,76,100,1.99
78,Corinto,GR,2021-03-15 14:51:22,37.9407,22.9573,55.0,55.0,55.0,Clouds,scattered clouds,50,45,18.01
79,Severo-Kurilsk,RU,2021-03-15 14:51:22,50.6789,156.125,36.09,36.09,36.09,Rain,light rain,98,100,20.31
80,Northam,GB,2021-03-15 14:51:23,51.0333,-4.2167,49.33,48.0,51.01,Clouds,broken clouds,92,52,5.99
81,Sumbuya,SL,2021-03-15 14:51:23,7.6467,-11.9611,96.64,96.64,96.64,Clouds,few clouds,39,23,3.4
82,Kaka,TM,2021-03-15 14:51:23,37.3482,59.6143,43.34,43.34,43.34,Clouds,few clouds,55,19,5.5
83,Boa Vista,BR,2021-03-15 14:51:23,2.8197,-60.6733,80.6,80.6,80.6,Rain,light rain,74,75,13.8
84,Alamogordo,US,2021-03-15 14:51:24,32.8995,-105.9603,46.78,41.0,50.0,Clear,clear sky,37,1,4.61
85,Tonj,SS,2021-03-15 14:51:24,7.2737,28.6822,92.35,92.35,92.35,Clouds,overcast clouds,34,98,10.11
86,Lazaro Cardenas,MX,2021-03-15 14:51:24,17.9583,-102.2,77.74,77.74,77.74,Clouds,overcast clouds,71,88,5.64
87,Ostrovnoy,RU,2021-03-15 14:51:25,68.0531,39.5131,24.96,24.96,24.96,Clouds,overcast clouds,95,100,0.81
88,Luderitz,NA,2021-03-15 14:51:25,-26.6481,15.1594,72.34,72.34,72.34,Clear,clear sky,62,0,30.78
89,Nova Olimpia,BR,2021-03-15 14:51:26,-14.7972,-57.2881,82.11,82.11,82.11,Clouds,overcast clouds,84,88,5.79
90,Hilo,US,2021-03-15 14:46:57,19.7297,-155.09,63.66,62.01,64.99,Clear,clear sky,82,1,6.91
91,Saldanha,ZA,2021-03-15 14:51:26,-33.0117,17.9442,65.39,65.39,65.39,Clear,clear sky,76,0,24.65
92,Ushuaia,AR,2021-03-15 14:48:34,-54.8,-68.3,46.4,46.4,46.4,Rain,light rain,81,75,36.82
93,Lensk,RU,2021-03-15 14:51:22,60.7253,114.9278,15.39,15.39,15.39,Clouds,overcast clouds,87,100,14.65
94,Coahuayana,MX,2021-03-15 14:51:27,18.7333,-103.6833,69.8,69.8,69.8,Clear,clear sky,56,1,0.63
95,Faanui,PF,2021-03-15 14:51:27,-16.4833,-151.75,82.26,82.26,82.26,Clear,clear sky,77,1,13.18
96,Lucapa,AO,2021-03-15 14:51:28,-8.4192,20.7447,79.52,79.52,79.52,Clouds,overcast clouds,64,91,3.11
97,Thompson,CA,2021-03-15 14:51:28,55.7435,-97.8558,26.6,26.6,26.6,Clouds,broken clouds,59,75,10.36
98,Arraial Do Cabo,BR,2021-03-15 14:51:28,-22.9661,-42.0278,88.32,86.0,91.4,Clouds,scattered clouds,66,40,10.36
99,Port Alfred,ZA,2021-03-15 14:47:29,-33.5906,26.891,69.01,69.01,69.01,Rain,light rain,89,99,7.0
100,Sitka,US,2021-03-15 14:51:29,57.0531,-135.33,35.6,35.6,35.6,Snow,snow,75,90,25.32
101,Lavrentiya,RU,2021-03-15 14:51:29,65.5833,-171.0,16.27,16.27,16.27,Snow,light snow,96,100,3.15
102,Bukama,CD,2021-03-15 14:51:29,-9.2,25.85,84.4,84.4,84.4,Clouds,broken clouds,71,63,0.54
103,Tecoanapa,MX,2021-03-15 14:51:30,16.5167,-98.75,80.87,80.87,80.87,Clear,clear sky,59,0,1.45
104,Pimentel,PE,2021-03-15 14:51:30,-6.8367,-79.9342,76.3,75.2,77.0,Clouds,broken clouds,78,75,6.91
105,Saint-Augustin,CA,2021-03-15 14:51:30,51.226,-58.6502,4.71,4.71,4.71,Clouds,scattered clouds,84,41,13.62
106,Bluff,NZ,2021-03-15 14:51:31,-46.6,168.3333,50.0,50.0,50.0,Rain,light rain,92,87,5.99
107,Nioro,GM,2021-03-15 14:51:31,13.35,-15.75,103.03,103.03,103.03,Clear,clear sky,7,0,6.96
108,Tuktoyaktuk,CA,2021-03-15 14:51:31,69.4541,-133.0374,-9.4,-9.4,-9.4,Snow,snow,77,90,18.41
109,Airai,TL,2021-03-15 14:51:32,-8.9266,125.4092,60.91,60.91,60.91,Clouds,broken clouds,96,61,0.87
110,Kapaa,US,2021-03-15 14:51:32,22.0752,-159.319,68.22,66.99,69.8,Rain,light rain,94,40,5.75
111,Morehead,US,2021-03-15 14:51:32,37.2711,-87.1764,45.9,45.0,46.4,Rain,moderate rain,76,90,11.5
112,Labuhan,ID,2021-03-15 14:51:33,-6.8844,112.2051,79.68,79.68,79.68,Clouds,scattered clouds,80,29,2.66
113,Norfolk,US,2021-03-15 14:50:23,42.1668,-71.2495,18.39,16.0,19.99,Clear,clear sky,32,1,10.36
114,Gizo,SB,2021-03-15 14:51:33,-8.103,156.8419,81.86,81.86,81.86,Clouds,overcast clouds,70,98,7.94
115,Dakar,SN,2021-03-15 14:51:33,14.6937,-17.4441,93.2,93.2,93.2,Clouds,broken clouds,26,69,11.5
116,Tiksi,RU,2021-03-15 14:51:34,71.6872,128.8694,-19.3,-19.3,-19.3,Clouds,overcast clouds,91,98,12.21
117,Yulara,AU,2021-03-15 14:51:34,-25.2406,130.9889,66.2,66.2,66.2,Clear,clear sky,26,0,6.91
118,Villamartin,ES,2021-03-15 14:51:34,36.8598,-5.6449,73.6,73.4,73.99,Clear,clear sky,35,0,9.22
119,Ariquemes,BR,2021-03-15 14:51:35,-9.9133,-63.0408,73.31,73.31,73.31,Clouds,overcast clouds,98,100,2.64
120,Mar Del Plata,AR,2021-03-15 14:46:37,-38.0023,-57.5575,71.76,69.8,73.99,Clear,clear sky,83,0,8.05
121,Douglas,US,2021-03-15 14:51:35,41.3,-96.167,38.19,37.0,39.99,Mist,mist,100,90,9.22
122,Havelock,US,2021-03-15 14:51:35,34.8791,-76.9013,49.91,48.99,51.01,Clouds,overcast clouds,39,94,5.99
123,Kemi,FI,2021-03-15 14:51:36,65.8596,24.8228,35.6,35.6,35.6,Clear,clear sky,69,0,5.75
124,Gondanglegi,ID,2021-03-15 14:51:36,-7.7479,112.0132,75.15,75.15,75.15,Clouds,overcast clouds,88,100,5.99
125,Lagoa,PT,2021-03-15 14:51:36,39.05,-27.9833,60.19,60.19,60.19,Clear,clear sky,86,0,8.7
126,Latehar,IN,2021-03-15 14:51:37,23.75,84.5,72.32,72.32,72.32,Clear,clear sky,20,0,2.39
127,Babu,CN,2021-03-15 14:51:37,24.4167,111.5167,71.2,71.2,71.2,Clouds,scattered clouds,84,50,3.09
128,Qaqortoq,GL,2021-03-15 14:51:38,60.7167,-46.0333,41.0,41.0,41.0,Clouds,broken clouds,33,75,25.32
129,Mahajanga,MG,2021-03-15 14:51:38,-15.7167,46.3167,87.8,87.8,87.8,Clouds,few clouds,70,20,8.05
130,New Norfolk,AU,2021-03-15 14:51:38,-42.7826,147.0587,47.77,46.0,51.01,Clear,clear sky,66,3,1.48
131,Podosinovets,RU,2021-03-15 14:51:39,60.2776,47.0659,33.73,33.73,33.73,Snow,snow,96,100,10.13
132,Abu Samrah,SY,2021-03-15 14:51:39,35.3029,37.1841,60.67,60.67,60.67,Clouds,scattered clouds,53,48,16.22
133,Cintalapa,MX,2021-03-15 14:51:39,16.6951,-93.7272,77.94,77.94,77.94,Clouds,scattered clouds,65,31,3.42
134,Yeppoon,AU,2021-03-15 14:51:40,-23.1333,150.7333,73.4,73.4,73.4,Clouds,overcast clouds,94,90,5.75
135,Kajaani,FI,2021-03-15 14:51:40,64.2273,27.7285,33.8,33.8,33.8,Rain,light rain,86,75,3.44
136,Hargeysa,SO,2021-03-15 14:51:40,9.56,44.065,72.9,72.9,72.9,Clear,clear sky,66,2,18.21
137,Clyde River,CA,2021-03-15 14:51:40,70.4692,-68.5914,-7.6,-7.6,-7.6,Snow,snow,84,40,26.46
138,Alofi,NU,2021-03-15 14:51:41,-19.0595,-169.9187,71.6,71.6,71.6,Clouds,scattered clouds,100,40,1.14
139,Alice Springs,AU,2021-03-15 14:51:41,-23.7,133.8833,59.0,59.0,59.0,Clouds,scattered clouds,72,40,16.67
140,Salem,IN,2021-03-15 14:47:25,11.65,78.1667,80.74,80.74,80.74,Clear,clear sky,39,10,8.68
141,Saint George,US,2021-03-15 14:51:42,37.1041,-113.5841,42.8,42.8,42.8,Clear,clear sky,65,1,6.78
142,Veraval,IN,2021-03-15 14:51:42,20.9,70.3667,78.78,78.78,78.78,Clear,clear sky,64,0,12.26
143,Dingle,PH,2021-03-15 14:51:42,10.9995,122.6711,76.17,76.17,76.17,Clouds,scattered clouds,92,45,1.32
144,Butaritari,KI,2021-03-15 14:51:43,3.0707,172.7902,80.58,80.58,80.58,Rain,moderate rain,79,100,11.68
145,Souillac,MU,2021-03-15 14:51:43,-20.5167,57.5167,78.8,78.8,78.8,Clouds,broken clouds,89,75,10.36
146,Quelimane,MZ,2021-03-15 14:51:43,-17.8786,36.8883,86.0,86.0,86.0,Clouds,scattered clouds,66,40,4.61
147,Eydhafushi,MV,2021-03-15 14:51:44,5.1033,73.0708,83.17,83.17,83.17,Clouds,scattered clouds,75,34,14.7
148,Pringsewu,ID,2021-03-15 14:51:44,-5.3582,104.9744,74.66,74.66,74.66,Clouds,scattered clouds,96,42,2.71
149,Carmen,MX,2021-03-15 14:51:44,18.6333,-91.8333,77.0,77.0,77.0,Clear,clear sky,73,1,21.85
150,Nordhausen,DE,2021-03-15 14:49:05,51.5167,10.8,40.87,37.0,46.0,Clouds,broken clouds,98,63,3.0
151,Cockburn Town,TC,2021-03-15 14:51:45,21.4612,-71.1419,74.88,74.88,74.88,Clouds,overcast clouds,63,100,9.84
152,Joshimath,IN,2021-03-15 14:51:45,30.5667,79.5667,52.77,52.77,52.77,Clouds,overcast clouds,54,100,3.69
153,Esperance,AU,2021-03-15 14:51:46,-33.8667,121.9,60.8,60.8,60.8,Clear,clear sky,77,0,10.36
154,Kualakapuas,ID,2021-03-15 14:51:46,-3.0091,114.3876,78.8,78.8,78.8,Clouds,scattered clouds,89,36,3.44
155,Wicklow,IE,2021-03-15 14:51:46,53.0,-6.4167,53.56,53.01,54.0,Clouds,broken clouds,87,75,8.05
156,Shache,CN,2021-03-15 14:51:47,38.4167,77.2406,58.17,58.17,58.17,Clear,clear sky,19,4,5.88
157,Erdenet,MN,2021-03-15 14:51:47,49.0333,104.0833,18.28,18.28,18.28,Clouds,overcast clouds,51,100,3.78
158,Qaanaaq,GL,2021-03-15 14:51:47,77.484,-69.3632,-7.64,-7.64,-7.64,Clear,clear sky,63,0,6.87
159,Vernon,CA,2021-03-15 14:48:51,50.2581,-119.2691,36.23,34.0,37.4,Clouds,scattered clouds,56,47,3.44
160,Santa Cruz,BO,2021-03-15 14:51:48,-17.8,-63.1667,77.68,77.0,78.8,Clouds,broken clouds,83,75,5.75
161,Taoudenni,ML,2021-03-15 14:51:48,22.6783,-3.9836,89.96,89.96,89.96,Clear,clear sky,12,0,11.48
162,San Cristobal,VE,2021-03-15 14:47:53,7.7669,-72.225,73.4,73.4,73.4,Drizzle,drizzle,100,75,2.3
163,Nelson Bay,AU,2021-03-15 14:51:49,-32.7167,152.15,57.43,55.4,59.0,Clear,clear sky,100,0,8.86
164,Nilopolis,BR,2021-03-15 14:51:45,-22.8075,-43.4139,88.3,86.0,91.4,Clouds,few clouds,51,20,3.44
165,San Quintin,MX,2021-03-15 14:51:49,30.4833,-115.95,53.89,53.89,53.89,Clouds,broken clouds,79,80,13.85
166,Fortuna,US,2021-03-15 14:51:49,40.5982,-124.1573,40.89,39.99,42.01,Clear,clear sky,77,0,16.44
167,Wanganui,NZ,2021-03-15 14:51:50,-39.9333,175.05,59.0,59.0,59.0,Rain,moderate rain,96,87,1.99
168,Port-Gentil,GA,2021-03-15 14:51:50,-0.7193,8.7815,81.16,81.16,81.16,Rain,moderate rain,74,100,7.78
169,Sulmona,IT,2021-03-15 14:51:50,42.0479,13.9291,50.97,46.0,55.4,Clouds,broken clouds,38,71,10.36
170,Longyearbyen,SJ,2021-03-15 14:51:51,78.2186,15.6401,-4.0,-4.0,-4.0,Snow,light snow,77,75,5.75
171,Vestmannaeyjar,IS,2021-03-15 14:51:51,63.4427,-20.2734,41.0,41.0,41.0,Drizzle,drizzle,93,90,34.52
172,Tasiilaq,GL,2021-03-15 14:51:51,65.6145,-37.6368,28.4,28.4,28.4,Snow,heavy snow,100,90,54.09
173,Tabas,IR,2021-03-15 14:51:52,33.5959,56.9244,64.33,64.33,64.33,Clouds,overcast clouds,23,94,4.16
174,Vanimo,PG,2021-03-15 14:51:52,-2.6741,141.3028,78.35,78.35,78.35,Clouds,overcast clouds,87,100,4.0
175,Nouakchott,MR,2021-03-15 14:47:56,18.0858,-15.9785,95.0,95.0,95.0,Clear,clear sky,10,0,5.75
176,Morondava,MG,2021-03-15 14:51:52,-20.2833,44.2833,83.53,83.53,83.53,Clear,clear sky,73,3,8.88
177,Kapiri Mposhi,ZM,2021-03-15 14:51:53,-13.9652,28.6809,71.13,71.13,71.13,Rain,moderate rain,90,95,5.59
178,Xining,CN,2021-03-15 14:51:53,36.6167,101.7667,49.12,49.12,49.12,Clouds,few clouds,20,13,1.36
179,Isangel,VU,2021-03-15 14:51:53,-19.55,169.2667,75.45,75.45,75.45,Clear,clear sky,85,3,5.66
180,Ohara,JP,2021-03-15 14:51:54,35.25,140.3833,48.81,42.8,53.6,Clouds,few clouds,87,20,2.3
181,Lufilufi,WS,2021-03-15 14:51:54,-13.8745,-171.5986,73.4,73.4,73.4,Rain,light rain,100,20,4.61
182,Deputatskiy,RU,2021-03-15 14:51:54,69.3,139.9,-5.1,-5.1,-5.1,Clouds,overcast clouds,94,100,2.55
183,Portland,US,2021-03-15 14:51:23,45.5234,-122.6762,31.48,28.99,34.0,Clouds,few clouds,80,20,1.83
184,Tazovskiy,RU,2021-03-15 14:51:55,67.4667,78.7,-4.68,-4.68,-4.68,Clouds,overcast clouds,97,100,9.35
185,Saskylakh,RU,2021-03-15 14:51:55,71.9167,114.0833,-23.76,-23.76,-23.76,Clouds,overcast clouds,95,100,3.22
186,Vilyuysk,RU,2021-03-15 14:51:56,63.7553,121.6247,-1.26,-1.26,-1.26,Clouds,overcast clouds,97,95,5.77
187,Tura,IN,2021-03-15 14:51:56,25.5198,90.2201,72.45,72.45,72.45,Clear,clear sky,30,0,3.09
188,Nemuro,JP,2021-03-15 14:51:56,43.3236,145.575,33.08,33.08,33.08,Clouds,broken clouds,85,73,18.72
189,Thinadhoo,MV,2021-03-15 14:51:57,0.5333,72.9333,82.72,82.72,82.72,Clouds,overcast clouds,71,99,5.61
190,Agadez,NE,2021-03-15 14:51:57,19.75,10.25,91.51,91.51,91.51,Clear,clear sky,10,0,11.45
191,Hamilton,US,2021-03-15 14:51:28,39.1834,-84.5333,33.48,33.01,35.01,Rain,light rain,47,90,16.11
192,Dalvik,IS,2021-03-15 14:51:57,65.9702,-18.5286,26.6,26.6,26.6,Clear,clear sky,80,0,6.91
193,Bambous Virieux,MU,2021-03-15 14:51:58,-20.3428,57.7575,79.84,78.8,81.0,Clouds,broken clouds,89,75,10.36
194,Vermilion,US,2021-03-15 14:51:58,40.1667,-87.7506,32.29,32.0,33.01,Clouds,overcast clouds,74,90,11.5
195,Biak,ID,2021-03-15 14:51:58,-0.9131,122.8766,78.15,78.15,78.15,Clouds,scattered clouds,85,33,2.21
196,Puerto Madryn,AR,2021-03-15 14:48:14,-42.7692,-65.0385,80.71,80.71,80.71,Clouds,broken clouds,39,76,17.16
197,Parakou,BJ,2021-03-15 14:51:59,9.3372,2.6303,101.34,101.34,101.34,Clouds,scattered clouds,13,40,4.54
198,Warmbad,NA,2021-03-15 14:51:59,-28.45,18.7333,84.34,84.34,84.34,Clear,clear sky,27,0,7.49
199,Itatskiy,RU,2021-03-15 14:52:00,56.07,89.0369,13.51,13.51,13.51,Clouds,overcast clouds,87,100,10.04
200,Maumere,ID,2021-03-15 14:52:00,-8.6199,122.2111,80.08,80.08,80.08,Clouds,broken clouds,81,79,2.1
201,Teya,RU,2021-03-15 14:52:00,60.3778,92.6267,12.6,12.6,12.6,Clouds,overcast clouds,92,99,8.12
202,Lethem,GY,2021-03-15 14:52:01,3.3803,-59.7968,86.29,86.29,86.29,Rain,heavy intensity rain,58,99,11.23
203,Yar-Sale,RU,2021-03-15 14:52:01,66.8333,70.8333,15.69,15.69,15.69,Clouds,overcast clouds,96,100,1.97
204,Porto Novo,BJ,2021-03-15 14:52:01,6.4965,2.6036,87.8,87.8,87.8,Clouds,few clouds,74,20,12.66
205,Victoria,HK,2021-03-15 14:52:02,22.2855,114.1577,70.05,61.0,73.0,Clouds,broken clouds,84,62,10.4
206,Cidreira,BR,2021-03-15 14:52:02,-30.1811,-50.2056,75.65,75.65,75.65,Clouds,scattered clouds,75,34,8.66
207,Lata,PT,2021-03-15 14:52:02,40.1629,-8.3327,73.99,73.99,73.99,Clear,clear sky,46,7,6.51
208,Wilson,US,2021-03-15 14:52:03,36.1501,-86.2833,62.76,62.01,64.4,Clouds,overcast clouds,52,90,11.5
209,Helena,US,2021-03-15 14:52:03,46.5927,-112.0361,30.0,26.01,34.0,Clear,clear sky,80,1,2.08
210,Dmitriyevka,RU,2021-03-15 14:52:04,54.75,55.3333,17.29,17.01,17.6,Snow,snow,57,90,20.13
211,Acarau,BR,2021-03-15 14:52:04,-2.8856,-40.12,83.43,83.43,83.43,Clouds,scattered clouds,71,43,10.31
212,Hami,CN,2021-03-15 14:49:02,42.8,93.45,45.36,45.36,45.36,Clear,clear sky,29,0,3.02
213,Pevek,RU,2021-03-15 14:52:04,69.7008,170.3133,-6.16,-6.16,-6.16,Snow,light snow,97,100,10.2
214,Oranjemund,NA,2021-03-15 14:52:05,-28.55,16.4333,67.17,67.17,67.17,Clouds,few clouds,72,12,25.12
215,Hobyo,SO,2021-03-15 14:52:05,5.3505,48.5268,81.1,81.1,81.1,Clouds,overcast clouds,76,97,16.6
216,Barra Do Garcas,BR,2021-03-15 14:52:05,-15.89,-52.2567,83.89,83.89,83.89,Clouds,broken clouds,66,84,4.27
217,Saint-Francois,FR,2021-03-15 14:52:06,46.4154,3.9054,49.39,48.0,50.0,Clouds,broken clouds,81,75,17.27
218,Los Llanos De Aridane,ES,2021-03-15 14:52:06,28.6585,-17.9182,63.12,60.01,68.0,Clouds,broken clouds,64,75,13.8
219,Mionica,BA,2021-03-15 14:52:06,44.8672,18.4631,40.87,37.0,48.0,Clouds,overcast clouds,100,90,3.44
220,Aizkraukle,LV,2021-03-15 14:52:07,56.6048,25.2553,39.99,39.99,39.99,Clouds,overcast clouds,84,98,4.0
221,Bossangoa,CF,2021-03-15 14:52:07,6.4926,17.4552,95.31,95.31,95.31,Clouds,overcast clouds,34,100,5.91
222,Zhigansk,RU,2021-03-15 14:52:07,66.7697,123.3711,-12.8,-12.8,-12.8,Clouds,overcast clouds,98,100,10.42
223,Palm Beach,US,2021-03-15 14:52:08,26.6503,-80.4498,77.0,77.0,77.0,Clear,clear sky,76,0,3.0
224,Kontagora,NG,2021-03-15 14:52:08,10.3999,5.4695,104.11,104.11,104.11,Clear,clear sky,10,0,4.59
225,Faya,SA,2021-03-15 14:52:08,18.3851,42.4509,74.3,73.4,75.2,Clear,clear sky,40,0,9.22
226,Marsh Harbour,BS,2021-03-15 14:48:10,26.5412,-77.0636,72.54,72.54,72.54,Clear,clear sky,61,0,6.76
227,San Patricio,US,2021-03-15 14:52:09,28.017,-97.5169,62.04,61.0,62.6,Mist,mist,100,90,6.91
228,Luganville,VU,2021-03-15 14:52:09,-15.5333,167.1667,78.33,78.33,78.33,Clouds,overcast clouds,82,100,1.52
229,Namatanai,PG,2021-03-15 14:52:09,-3.6667,152.4333,79.84,79.84,79.84,Clouds,few clouds,74,18,5.93
230,Nyurba,RU,2021-03-15 14:52:10,63.2842,118.3319,7.86,7.86,7.86,Clouds,overcast clouds,92,99,8.93
231,Kita,ML,2021-03-15 14:52:10,13.0349,-9.4895,103.59,103.59,103.59,Clear,clear sky,9,0,5.44
232,Pemberton,CA,2021-03-15 14:50:00,50.3164,-122.8027,28.4,28.4,28.4,Clouds,few clouds,86,20,3.22
233,Inirida,CO,2021-03-15 14:52:11,3.8653,-67.9239,86.58,86.58,86.58,Clouds,broken clouds,66,79,2.48
234,Port Lincoln,AU,2021-03-15 14:52:11,-34.7333,135.8667,63.84,63.84,63.84,Clouds,overcast clouds,83,100,8.01
235,Hithadhoo,MV,2021-03-15 14:52:12,-0.6,73.0833,84.16,84.16,84.16,Clouds,overcast clouds,66,100,6.78
236,Tomatlan,MX,2021-03-15 14:52:12,19.9333,-105.25,75.49,75.49,75.49,Clear,clear sky,41,0,1.3
237,Vostok,RU,2021-03-15 14:52:12,46.4856,135.8833,28.9,28.9,28.9,Snow,light snow,76,100,4.41
238,Moissala,TD,2021-03-15 14:52:13,8.3404,17.7663,102.25,102.25,102.25,Clouds,overcast clouds,19,99,2.55
239,Puerto Leguizamo,CO,2021-03-15 14:52:13,-0.1934,-74.7819,76.71,76.71,76.71,Clouds,overcast clouds,90,100,3.98
240,Naze,JP,2021-03-15 14:52:14,28.3667,129.4833,62.55,62.55,62.55,Clear,clear sky,72,0,12.88
241,Lebu,CL,2021-03-15 14:52:14,-37.6167,-73.65,58.21,58.21,58.21,Clouds,overcast clouds,81,100,3.94
242,Pisco,PE,2021-03-15 14:52:15,-13.7,-76.2167,76.57,75.99,77.0,Clear,clear sky,69,0,5.75
243,Saint-Pierre,RE,2021-03-15 14:48:56,-21.3393,55.4781,79.41,68.0,84.2,Clear,clear sky,61,0,6.91
244,Sri Aman,MY,2021-03-15 14:52:15,1.2376,111.4621,78.4,78.01,78.8,Clouds,broken clouds,89,74,1.32
245,Westport,US,2021-03-15 14:51:58,41.1415,-73.3579,24.53,23.0,27.0,Clear,clear sky,26,1,16.11
246,Jiazi,CN,2021-03-15 14:52:16,22.8779,116.067,68.77,68.77,68.77,Clouds,scattered clouds,86,32,6.31
247,Magway,MM,2021-03-15 14:52:16,20.15,94.9167,78.55,78.55,78.55,Clear,clear sky,23,0,7.07
248,Hasaki,JP,2021-03-15 14:52:16,35.7333,140.8333,42.15,41.0,42.8,Clouds,few clouds,87,20,2.3
249,Sorong,ID,2021-03-15 14:47:25,-0.8833,131.25,81.99,81.99,81.99,Rain,light rain,79,100,11.59
250,Cherskiy,RU,2021-03-15 14:52:17,68.75,161.3,-17.66,-17.66,-17.66,Clear,clear sky,91,0,8.93
251,Richards Bay,ZA,2021-03-15 14:52:17,-28.783,32.0377,81.81,81.81,81.81,Clear,clear sky,64,0,14.38
252,Acari,PE,2021-03-15 14:52:18,-15.4311,-74.6158,81.36,81.36,81.36,Clouds,overcast clouds,57,85,8.37
253,Manta,EC,2021-03-15 14:52:18,-0.95,-80.7333,82.4,82.4,82.4,Rain,light rain,78,40,1.14
254,Zonguldak,TR,2021-03-15 14:49:42,41.25,31.8333,57.97,57.97,57.97,Clouds,overcast clouds,55,97,3.94
255,Songjianghe,CN,2021-03-15 14:52:18,42.1859,127.479,24.39,24.39,24.39,Clouds,scattered clouds,78,42,7.9
256,Krasnozerskoye,RU,2021-03-15 14:52:19,53.9828,79.2374,2.97,2.97,2.97,Clouds,overcast clouds,96,85,9.13
257,Chumikan,RU,2021-03-15 14:52:19,54.7183,135.315,25.79,25.79,25.79,Snow,snow,97,100,5.73
258,Buin,CL,2021-03-15 14:52:19,-33.7333,-70.75,58.05,53.6,64.99,Fog,fog,100,90,2.3
259,Salalah,OM,2021-03-15 14:52:20,17.0151,54.0924,80.6,80.6,80.6,Clear,clear sky,65,0,6.91
260,Marsa Matruh,EG,2021-03-15 14:52:20,31.3525,27.2453,64.4,64.4,64.4,Clear,clear sky,68,0,8.05
261,Beringovskiy,RU,2021-03-15 14:52:20,63.05,179.3167,-4.77,-4.77,-4.77,Clouds,broken clouds,80,72,8.86
262,Vardo,NO,2021-03-15 14:52:21,70.3705,31.1107,30.2,30.2,30.2,Snow,light snow,86,75,21.85
263,Inhambane,MZ,2021-03-15 14:51:14,-23.865,35.3833,86.0,86.0,86.0,Clouds,scattered clouds,62,40,11.5
264,Porto Santo,PT,2021-03-15 14:52:21,33.072,-16.3415,66.2,66.2,66.2,Clouds,few clouds,68,20,14.97
265,Padilla,CO,2021-03-15 14:52:22,3.2204,-76.3139,66.2,66.2,66.2,Drizzle,drizzle,100,75,6.91
266,Sistranda,NO,2021-03-15 14:52:22,63.7256,8.834,39.2,39.2,39.2,Clouds,broken clouds,70,75,16.11
267,Monduli,TZ,2021-03-15 14:52:22,-3.3,36.45,77.0,77.0,77.0,Clouds,scattered clouds,50,40,13.8
268,Tsogni,GA,2021-03-15 14:52:23,-2.7942,10.0988,77.63,77.63,77.63,Clouds,overcast clouds,81,97,2.77
269,Moerai,PF,2021-03-15 14:52:23,-22.4333,-151.3333,79.59,79.59,79.59,Clouds,few clouds,80,18,18.68
270,Tuatapere,NZ,2021-03-15 14:52:24,-46.1333,167.6833,50.0,50.0,50.0,Clouds,broken clouds,92,82,5.99
271,Presidente Dutra,BR,2021-03-15 14:52:24,-5.29,-44.49,83.34,83.34,83.34,Clouds,overcast clouds,83,99,2.37
272,Apatity,RU,2021-03-15 14:52:24,67.5641,33.4031,30.0,30.0,30.0,Clouds,overcast clouds,97,100,1.3
273,Warrington,GB,2021-03-15 14:52:24,53.3925,-2.5802,52.16,51.01,54.0,Clouds,overcast clouds,71,90,13.8
274,Goderich,CA,2021-03-15 14:52:25,43.7501,-81.7165,23.0,23.0,23.0,Clear,clear sky,42,0,12.66
275,Kruisfontein,ZA,2021-03-15 14:52:25,-34.0033,24.7314,72.0,72.0,72.0,Clouds,broken clouds,72,60,11.01
276,Ipil,PH,2021-03-15 14:52:25,7.75,122.5167,76.39,76.39,76.39,Clouds,broken clouds,87,70,2.55
277,Leek,NL,2021-03-15 14:52:26,53.1625,6.3764,45.81,45.0,46.4,Clouds,broken clouds,76,75,19.57
278,Maceio,BR,2021-03-15 14:52:26,-9.6658,-35.7353,86.0,86.0,86.0,Clouds,scattered clouds,58,40,11.5
279,Barrow,US,2021-03-15 14:52:05,71.2906,-156.7887,-2.2,-2.2,-2.2,Haze,haze,78,90,13.8
280,Dikson,RU,2021-03-15 14:52:27,73.5069,80.5464,-24.81,-24.81,-24.81,Clouds,overcast clouds,99,100,8.61
281,Soyo,AO,2021-03-15 14:52:27,-6.1349,12.3689,86.0,86.0,86.0,Rain,light rain,74,75,9.22
282,Kondinskoye,RU,2021-03-15 14:52:28,59.6481,67.41,22.96,22.96,22.96,Clouds,overcast clouds,93,100,10.16
283,Kato Khorion,GR,2021-03-15 14:52:28,35.05,25.7833,64.99,64.99,64.99,Clear,clear sky,54,1,17.25
284,General Teran,MX,2021-03-15 14:52:28,25.2667,-99.6833,67.68,67.68,67.68,Clouds,few clouds,38,18,1.54
285,Spornoye,RU,2021-03-15 14:52:29,50.8448,37.2913,44.6,44.6,44.6,Rain,light rain,65,0,11.18
286,Poopo,BO,2021-03-15 14:52:29,-18.3667,-66.9667,51.8,51.8,51.8,Clouds,broken clouds,71,75,4.38
287,Ponta Delgada,PT,2021-03-15 14:52:29,37.7333,-25.6667,62.6,62.6,62.6,Clouds,few clouds,94,20,5.75
288,Tortoli,IT,2021-03-15 14:52:29,39.9256,9.6572,59.9,57.0,62.6,Clouds,scattered clouds,31,40,26.46
289,Sao Joao Da Barra,BR,2021-03-15 14:52:30,-21.6403,-41.0511,86.0,86.0,86.0,Clear,clear sky,58,0,6.91
290,Evensk,RU,2021-03-15 14:52:30,61.95,159.2333,-2.76,-2.76,-2.76,Clouds,overcast clouds,92,100,2.75
291,Rokytne,UA,2021-03-15 14:52:30,51.2796,27.214,40.17,40.17,40.17,Clouds,overcast clouds,86,100,5.88
292,Saint Anthony,US,2021-03-15 14:52:31,45.0205,-93.218,30.07,28.99,30.99,Snow,light snow,64,90,13.8
293,Bandarbeyla,SO,2021-03-15 14:52:31,9.4942,50.8122,79.39,79.39,79.39,Clouds,broken clouds,80,77,14.94
294,Provideniya,RU,2021-03-15 14:52:31,64.3833,-173.3,7.63,7.63,7.63,Clouds,broken clouds,97,67,5.61
295,Sao Marcos,BR,2021-03-15 14:52:32,-28.9711,-51.0681,82.0,82.0,82.0,Clear,clear sky,42,8,1.05
296,Te Anau,NZ,2021-03-15 14:50:09,-45.4167,167.7167,48.54,48.54,48.54,Clouds,broken clouds,93,78,4.9
297,Areosa,PT,2021-03-15 14:52:32,41.7178,-8.8571,66.34,64.4,68.0,Clear,clear sky,59,0,12.66
298,Upata,VE,2021-03-15 14:52:33,8.0086,-62.3989,84.49,84.49,84.49,Clouds,scattered clouds,56,50,7.63
299,Bilibino,RU,2021-03-15 14:52:33,68.0546,166.4372,-20.25,-20.25,-20.25,Clouds,overcast clouds,99,98,2.37
300,Norman Wells,CA,2021-03-15 14:52:34,65.282,-126.8329,-22.0,-22.0,-22.0,Snow,light snow,83,75,3.44
301,Huarmey,PE,2021-03-15 14:52:34,-10.0681,-78.1522,77.81,77.81,77.81,Clouds,broken clouds,67,58,9.22
302,Axim,GH,2021-03-15 14:52:34,4.8699,-2.2405,86.25,86.25,86.25,Clouds,scattered clouds,61,48,8.81
303,Jijiga,ET,2021-03-15 14:52:35,9.35,42.8,78.62,78.62,78.62,Clouds,overcast clouds,29,85,6.06
304,Churapcha,RU,2021-03-15 14:52:36,62.0025,132.4325,-12.06,-12.06,-12.06,Clear,clear sky,93,0,8.99
305,Doha,QA,2021-03-15 14:47:45,25.2867,51.5333,70.2,69.8,71.01,Clear,clear sky,68,0,9.22
306,Kushima,JP,2021-03-15 14:52:36,31.4583,131.2333,50.0,50.0,50.0,Clouds,overcast clouds,71,93,3.0
307,Khasan,RU,2021-03-15 14:52:37,42.4308,130.6434,39.43,39.43,39.43,Clouds,broken clouds,57,70,20.76
308,Knittelfeld,AT,2021-03-15 14:52:37,47.2167,14.8167,42.8,42.8,42.8,Clouds,broken clouds,42,75,13.8
309,Yumen,CN,2021-03-15 14:52:37,40.2833,97.2,36.39,36.39,36.39,Clouds,overcast clouds,18,100,14.56
310,Terrace,CA,2021-03-15 14:52:38,54.5163,-128.6035,26.6,26.6,26.6,Clouds,scattered clouds,93,40,2.3
311,Ancud,CL,2021-03-15 14:52:38,-41.8697,-73.8203,56.01,53.01,61.0,Drizzle,light intensity drizzle,82,75,3.44
312,Broome,US,2021-03-15 14:52:38,42.2506,-75.833,18.68,15.01,21.0,Clear,clear sky,48,1,18.41
313,North Bend,US,2021-03-15 14:52:39,43.4065,-124.2243,36.14,33.01,39.2,Clouds,broken clouds,87,75,16.11
314,Vao,NC,2021-03-15 14:52:39,-22.6667,167.4833,76.28,76.28,76.28,Clear,clear sky,81,0,12.59
315,Alvaraes,BR,2021-03-15 14:52:39,-3.2208,-64.8042,78.8,78.8,78.8,Clouds,broken clouds,94,75,4.61
316,Carauari,BR,2021-03-15 14:52:40,-4.8828,-66.8958,80.1,80.1,80.1,Rain,light rain,79,99,2.8
317,Sanchor,IN,2021-03-15 14:52:40,24.7553,71.7722,80.64,80.64,80.64,Clear,clear sky,25,0,10.16
318,Kudahuvadhoo,MV,2021-03-15 14:52:40,2.6708,72.8944,83.86,83.86,83.86,Clouds,overcast clouds,70,100,8.03
319,Ardesen,TR,2021-03-15 14:52:41,41.1911,40.9875,59.0,59.0,59.0,Clouds,scattered clouds,58,40,2.46
320,San Rafael,AR,2021-03-15 14:52:41,-34.6177,-68.3301,78.57,78.57,78.57,Clouds,scattered clouds,44,49,8.86
321,Tual,ID,2021-03-15 14:52:42,-5.6667,132.75,83.84,83.84,83.84,Clouds,broken clouds,72,84,3.6
322,Codrington,AU,2021-03-15 14:52:42,-38.2667,141.9667,57.09,57.09,57.09,Clouds,broken clouds,87,69,7.23
323,Seymchan,RU,2021-03-15 14:52:42,62.8833,152.4333,3.22,3.22,3.22,Clouds,overcast clouds,85,100,2.55
324,Adrar,MR,2021-03-15 14:52:43,20.5022,-10.0711,88.97,88.97,88.97,Clear,clear sky,13,0,8.12
325,Uyuni,BO,2021-03-15 14:52:43,-20.4597,-66.825,55.47,55.47,55.47,Clouds,broken clouds,51,59,5.91
326,Sortavala,RU,2021-03-15 14:52:43,61.7053,30.6918,33.44,33.44,33.44,Snow,light snow,99,100,1.59
327,Klaksvik,FO,2021-03-15 14:52:44,62.2266,-6.589,41.0,41.0,41.0,Clouds,broken clouds,81,75,8.05
328,Srivardhan,IN,2021-03-15 14:52:44,18.0333,73.0167,80.67,80.67,80.67,Clear,clear sky,54,0,6.26
329,Hovd,MN,2021-03-15 14:52:44,48.0056,91.6419,20.52,20.52,20.52,Clouds,broken clouds,49,68,0.92
330,Ilulissat,GL,2021-03-15 14:52:45,69.2167,-51.1,15.8,15.8,15.8,Clouds,broken clouds,57,75,8.05
331,Srednekolymsk,RU,2021-03-15 14:52:45,67.45,153.6833,-9.94,-9.94,-9.94,Clouds,overcast clouds,82,94,3.29
332,Bulawayo,ZW,2021-03-15 14:52:46,-20.15,28.5833,74.23,74.23,74.23,Clouds,overcast clouds,55,97,5.3
333,Tagusao,PH,2021-03-15 14:52:46,9.1924,117.8141,79.84,79.84,79.84,Clouds,scattered clouds,82,27,3.49
334,Veinticinco De Mayo,AR,2021-03-15 14:52:46,-35.4323,-60.1727,77.0,77.0,77.0,Rain,light rain,53,95,8.99
335,Bridlington,GB,2021-03-15 14:52:47,54.0831,-0.1919,49.89,46.99,51.8,Clouds,broken clouds,50,75,11.5
336,Nador,MA,2021-03-15 14:52:47,35.174,-2.9287,64.4,64.4,64.4,Clouds,scattered clouds,72,40,9.22
337,Chota,PE,2021-03-15 14:52:47,-6.55,-78.65,60.8,60.8,60.8,Rain,light rain,67,75,2.3
338,Xinyu,CN,2021-03-15 14:52:48,27.8043,114.9334,69.35,69.35,69.35,Clouds,broken clouds,82,65,5.68
339,Niamey,NE,2021-03-15 14:47:53,13.5137,2.1098,96.8,96.8,96.8,Dust,dust,11,98,6.91
340,Manzhouli,CN,2021-03-15 14:52:48,49.6,117.4333,9.32,9.32,9.32,Clear,clear sky,75,0,12.86
341,Turukhansk,RU,2021-03-15 14:52:49,65.8167,87.9833,10.31,10.31,10.31,Snow,light snow,96,99,4.5
342,Ribera,IT,2021-03-15 14:52:49,37.4984,13.2642,51.71,46.99,55.0,Clear,clear sky,55,0,10.0
343,Wuwei,CN,2021-03-15 14:52:49,37.9281,102.6414,43.57,43.57,43.57,Clouds,overcast clouds,26,100,4.16
344,Leh,IN,2021-03-15 14:52:50,34.1667,77.5833,27.14,27.14,27.14,Clouds,broken clouds,41,53,3.11
345,Kahului,US,2021-03-15 14:52:50,20.8947,-156.47,66.99,66.99,66.99,Clear,clear sky,77,1,6.15
346,Pangnirtung,CA,2021-03-15 14:52:50,66.1451,-65.7125,-22.0,-22.0,-22.0,Clouds,few clouds,69,20,2.3
347,Saurimo,AO,2021-03-15 14:51:17,-9.6608,20.3916,89.6,89.6,89.6,Rain,moderate rain,43,75,5.75
348,Mitsamiouli,KM,2021-03-15 14:52:51,-11.3847,43.2844,83.07,83.07,83.07,Clouds,broken clouds,71,73,4.0
349,Krasnoarmeysk,RU,2021-03-15 14:52:51,51.0239,45.6969,23.85,23.85,23.85,Clouds,few clouds,83,12,10.36
350,Choix,MX,2021-03-15 14:52:51,26.7092,-108.3219,64.49,64.49,64.49,Clear,clear sky,11,0,4.5
351,Somerset East,ZA,2021-03-15 14:52:52,-32.7217,25.588,73.49,73.49,73.49,Rain,light rain,70,77,8.55
352,Kant,IN,2021-03-15 14:52:52,27.8,79.8,80.83,80.83,80.83,Clouds,scattered clouds,18,48,9.8
353,Rocha,UY,2021-03-15 14:52:52,-34.4833,-54.3333,79.05,79.05,79.05,Clear,clear sky,56,0,7.74
354,Ust-Nera,RU,2021-03-15 14:52:53,64.5667,143.2,-3.78,-3.78,-3.78,Clouds,overcast clouds,98,99,4.72
355,Vila Franca Do Campo,PT,2021-03-15 14:52:53,37.7167,-25.4333,62.6,62.6,62.6,Clouds,few clouds,94,20,5.75
356,Komsomolskiy,UZ,2021-03-15 14:52:54,40.4272,71.7189,37.4,37.4,37.4,Mist,mist,70,40,4.61
357,Voloshka,RU,2021-03-15 14:52:54,61.3314,40.0858,33.64,33.64,33.64,Snow,light snow,99,100,5.37
358,Tretten,NO,2021-03-15 14:52:54,61.3142,10.3007,43.0,43.0,43.0,Clouds,scattered clouds,67,45,4.94
359,Emerald,AU,2021-03-15 14:52:55,-23.5333,148.1667,69.8,69.8,69.8,Rain,light rain,100,75,13.8
360,Sioux Lookout,CA,2021-03-15 14:52:55,50.1001,-91.917,19.4,19.4,19.4,Clouds,scattered clouds,63,40,10.36
361,Hassleholm,SE,2021-03-15 14:52:55,56.1591,13.7664,44.51,42.8,46.0,Rain,light rain,76,75,8.05
362,Omboue,GA,2021-03-15 14:52:56,-1.5746,9.2618,80.62,80.62,80.62,Rain,light rain,77,94,7.9
363,Kanniyakumari,IN,2021-03-15 14:52:56,8.0833,77.5667,82.67,82.67,82.67,Clear,clear sky,62,0,11.86
364,Muros,ES,2021-03-15 14:52:56,42.7762,-9.0603,67.28,64.4,69.01,Clouds,few clouds,42,20,6.91
365,Rudbar,AF,2021-03-15 14:52:56,30.15,62.6,69.39,69.39,69.39,Clouds,overcast clouds,18,100,8.75
366,Chegdomyn,RU,2021-03-15 14:52:57,51.1167,133.0167,30.78,30.78,30.78,Snow,light snow,95,100,2.84
367,Pochutla,MX,2021-03-15 14:52:57,15.7432,-96.4661,75.45,71.6,79.0,Clear,clear sky,78,1,3.98
368,Kununurra,AU,2021-03-15 14:52:58,-15.7667,128.7333,80.6,80.6,80.6,Clouds,overcast clouds,89,99,13.8
369,Dawei,MM,2021-03-15 14:52:58,14.0833,98.2,77.95,77.95,77.95,Clouds,few clouds,81,14,1.77
370,Brewster,US,2021-03-15 14:52:58,41.3973,-73.6171,22.57,19.99,25.0,Clear,clear sky,23,1,19.57
371,Catumbela,AO,2021-03-15 14:52:58,-12.4314,13.5472,82.58,82.58,82.58,Clouds,overcast clouds,78,100,8.43
372,Tucupita,VE,2021-03-15 14:52:59,9.0622,-62.051,81.01,81.01,81.01,Clouds,overcast clouds,83,96,6.02
373,Clyde,US,2021-03-15 14:52:59,41.3042,-82.9752,31.64,30.99,32.0,Clouds,overcast clouds,54,95,1.99
374,Petropavlovsk-Kamchatskiy,RU,2021-03-15 14:52:59,53.0452,158.6483,21.2,21.2,21.2,Clouds,broken clouds,68,60,11.18
375,Kangaba,ML,2021-03-15 14:53:00,11.9333,-8.4167,106.09,106.09,106.09,Clear,clear sky,8,2,3.15
376,Bahia Blanca,AR,2021-03-15 14:50:10,-38.7196,-62.2724,86.34,86.34,86.34,Clear,clear sky,31,5,10.87
377,Merauke,ID,2021-03-15 14:53:00,-8.4667,140.3333,80.89,80.89,80.89,Clouds,overcast clouds,76,100,3.02
378,Maghar,IL,2021-03-15 14:53:00,32.8898,35.407,66.78,64.0,69.8,Clear,clear sky,49,0,10.36
379,Talnakh,RU,2021-03-15 14:53:01,69.4865,88.3972,-30.71,-30.71,-30.71,Clear,clear sky,98,6,0.43
380,Paita,PE,2021-03-15 14:53:01,-5.0892,-81.1144,80.6,80.6,80.6,Clear,clear sky,61,0,5.75
381,Braganca,BR,2021-03-15 14:53:02,-1.0536,-46.7656,84.15,84.15,84.15,Rain,moderate rain,74,7,4.05
382,Bilma,NE,2021-03-15 14:53:02,18.6853,12.9164,98.89,98.89,98.89,Clear,clear sky,8,0,13.24
383,Roma,US,2021-03-15 14:53:02,43.2128,-75.4557,20.28,16.0,26.6,Clear,clear sky,26,1,16.11
384,Geraldton,AU,2021-03-15 14:53:03,-28.7667,114.6,75.2,75.2,75.2,Clouds,overcast clouds,43,100,4.61
385,Atambua,ID,2021-03-15 14:53:03,-9.1061,124.8925,74.62,74.62,74.62,Clouds,overcast clouds,86,93,2.68
386,Nanortalik,GL,2021-03-15 14:53:03,60.1432,-45.2371,33.37,33.37,33.37,Clouds,overcast clouds,78,100,6.96
387,Maarianhamina,AX,2021-03-15 14:53:04,60.0973,19.9348,33.8,33.8,33.8,Clear,clear sky,86,0,3.44
388,Leticia,CO,2021-03-15 14:51:04,-4.2153,-69.9406,80.67,78.8,82.4,Clouds,scattered clouds,78,40,3.44
389,Okara,PK,2021-03-15 14:53:04,30.8081,73.4458,73.53,73.53,73.53,Rain,light rain,26,3,2.1
390,Ahipara,NZ,2021-03-15 14:53:05,-35.1667,173.1667,60.94,60.94,60.94,Clouds,overcast clouds,93,92,2.24
391,Zhangjiakou,CN,2021-03-15 14:53:05,40.81,114.8794,30.97,30.97,30.97,Clear,clear sky,24,0,8.08
392,Bor,RU,2021-03-15 14:53:05,56.3567,44.0669,37.2,37.0,37.4,Rain,light rain,60,75,15.66
393,Ormara,PK,2021-03-15 14:53:06,25.2088,64.6357,76.08,76.08,76.08,Clear,clear sky,79,0,12.8
394,Salinopolis,BR,2021-03-15 14:53:06,-0.6136,-47.3561,81.59,81.59,81.59,Clouds,overcast clouds,83,91,7.25
395,Puerto Escondido,MX,2021-03-15 14:53:06,15.85,-97.0667,75.2,75.2,75.2,Clear,clear sky,83,1,5.75
396,Ozernovskiy,RU,2021-03-15 14:53:06,51.5,156.5167,38.77,38.77,38.77,Clouds,overcast clouds,85,100,11.25
397,Yablonovo,RU,2021-03-15 14:53:07,50.8523,37.3574,44.6,44.6,44.6,Rain,light rain,65,0,11.18
398,Calama,CL,2021-03-15 14:53:07,-22.4667,-68.9333,62.6,62.6,62.6,Clouds,few clouds,55,20,6.91
399,Cabo San Lucas,MX,2021-03-15 14:53:07,22.8909,-109.9124,57.2,57.2,57.2,Clear,clear sky,26,1,8.05
400,Katsuura,JP,2021-03-15 14:53:08,35.1333,140.3,53.29,53.01,53.6,Clear,clear sky,32,0,3.44
401,Port Keats,AU,2021-03-15 14:53:08,-14.25,129.55,78.91,78.91,78.91,Clouds,overcast clouds,83,98,2.15
402,San Policarpo,PH,2021-03-15 14:53:08,12.1791,125.5072,80.55,80.55,80.55,Clear,clear sky,86,6,10.13
403,Santa Fe,AR,2021-03-15 14:53:09,-31.6333,-60.7,87.12,87.12,87.12,Clouds,overcast clouds,25,99,9.42
404,Wangaratta,AU,2021-03-15 14:50:24,-36.3667,146.3333,55.24,55.0,55.4,Clear,clear sky,82,0,2.3
405,Keita,NE,2021-03-15 14:53:09,14.7551,5.7749,100.4,100.4,100.4,Dust,dust,8,43,6.91
406,Bang Saphan,TH,2021-03-15 14:53:09,11.2126,99.5117,80.6,80.6,80.6,Clouds,few clouds,78,20,3.44
407,Dinguiraye,GN,2021-03-15 14:53:10,11.3,-10.7167,101.86,101.86,101.86,Clear,clear sky,10,0,3.4
408,Paamiut,GL,2021-03-15 14:53:10,61.994,-49.6678,29.19,29.19,29.19,Snow,light snow,94,100,16.64
409,Harper,LR,2021-03-15 14:53:11,4.375,-7.7169,84.04,84.04,84.04,Clouds,overcast clouds,69,100,8.37
410,Indiaroba,BR,2021-03-15 14:53:11,-11.5192,-37.5117,87.85,87.85,87.85,Clouds,scattered clouds,52,38,9.46
411,Bereda,ES,2021-03-15 14:53:11,43.2686,-7.5406,60.33,59.0,62.01,Clear,clear sky,62,0,13.0
412,Taft,IR,2021-03-15 14:53:12,31.7471,54.2088,66.2,66.2,66.2,Clouds,broken clouds,24,75,2.3
413,Nkayi,CG,2021-03-15 14:53:12,-4.1841,13.2884,79.29,79.29,79.29,Rain,moderate rain,88,100,7.81
414,Khorol,UA,2021-03-15 14:53:12,49.7837,33.2783,46.62,46.62,46.62,Clouds,overcast clouds,75,100,7.31
415,Anjozorobe,MG,2021-03-15 14:53:13,-18.4,47.8667,75.2,75.2,75.2,Rain,moderate rain,60,40,12.66
416,Kaitong,CN,2021-03-15 14:53:13,44.8135,123.15,27.48,27.48,27.48,Clear,clear sky,36,0,19.77
417,Berbera,SO,2021-03-15 14:53:13,10.4396,45.0143,80.71,80.71,80.71,Clouds,broken clouds,72,74,14.61
418,Opuwo,NA,2021-03-15 14:53:14,-18.0607,13.84,84.49,84.49,84.49,Clouds,overcast clouds,40,100,3.71
419,Grenaa,DK,2021-03-15 14:53:14,56.4158,10.8783,39.45,37.0,41.0,Clouds,overcast clouds,87,90,16.11
420,Thaba Nchu,ZA,2021-03-15 14:53:14,-29.2093,26.839,71.6,71.6,71.6,Rain,light rain,53,75,6.91
421,Zhangye,CN,2021-03-15 14:53:15,38.9342,100.4517,43.02,43.02,43.02,Clouds,few clouds,27,12,1.54
422,Tawang,IN,2021-03-15 14:53:15,27.5833,91.8667,43.27,43.27,43.27,Clouds,overcast clouds,95,100,1.25
423,Port Arthur,CN,2021-03-15 14:50:28,38.8,121.2667,37.4,37.4,37.4,Mist,mist,93,20,4.47
424,Chegutu,ZW,2021-03-15 14:53:15,-18.1302,30.1407,76.64,76.64,76.64,Rain,light rain,65,56,2.26
425,Lamar,US,2021-03-15 14:53:16,33.6668,-95.5836,51.78,48.2,55.0,Clear,clear sky,93,1,6.91
426,Codajas,BR,2021-03-15 14:53:16,-3.8367,-62.0569,87.62,87.62,87.62,Clouds,overcast clouds,60,100,3.69
427,Makakilo City,US,2021-03-15 14:53:16,21.3469,-158.0858,65.39,60.8,68.0,Clear,clear sky,88,1,5.75
428,Severomorsk,RU,2021-03-15 14:53:17,69.0689,33.4162,30.2,30.2,30.2,Snow,light snow,86,75,4.47
429,Synya,RU,2021-03-15 14:53:17,65.3718,58.0387,27.72,27.72,27.72,Snow,light snow,96,100,8.34
430,Tautira,PF,2021-03-15 14:53:17,-17.7333,-149.15,78.4,78.01,78.8,Clouds,broken clouds,78,75,3.44
431,Kuybyshevo,RU,2021-03-15 14:53:18,47.8123,38.9073,43.57,43.57,43.57,Clouds,scattered clouds,74,50,14.56
432,Sambava,MG,2021-03-15 14:53:18,-14.2667,50.1667,79.36,79.36,79.36,Rain,moderate rain,86,100,12.24
433,Petrozavodsk,RU,2021-03-15 14:48:32,61.7849,34.3469,33.8,33.8,33.8,Snow,snow,100,90,4.47
434,Jardim,BR,2021-03-15 14:53:19,-21.4803,-56.1381,90.75,90.75,90.75,Clouds,scattered clouds,46,46,5.21
435,Casma,CL,2021-03-15 14:53:19,-41.0082,-73.1244,55.4,55.4,55.4,Clouds,broken clouds,74,75,5.75
436,Fairview,US,2021-03-15 14:53:19,40.8126,-73.999,27.79,25.0,30.2,Clear,clear sky,28,1,17.27
437,Huilong,CN,2021-03-15 14:53:20,31.8111,121.655,63.45,63.0,64.99,Rain,light rain,91,100,1.01
438,Melo,UY,2021-03-15 14:53:20,-32.3667,-54.1833,76.5,76.5,76.5,Clear,clear sky,58,10,8.41
439,Conde,BR,2021-03-15 14:53:20,-7.2597,-34.9075,87.8,87.8,87.8,Clouds,broken clouds,62,75,11.5
440,Rodrigues Alves,BR,2021-03-15 14:53:21,-7.738,-72.6509,82.4,82.4,82.4,Clouds,scattered clouds,83,40,1.14
441,Nurota,UZ,2021-03-15 14:53:21,40.5614,65.6886,33.8,33.8,33.8,Clouds,few clouds,80,24,11.5
442,Esmeraldas,BR,2021-03-15 14:53:21,-19.7625,-44.3139,78.8,77.0,80.6,Clouds,broken clouds,50,75,9.22
443,Itarema,BR,2021-03-15 14:53:22,-2.9248,-39.9167,84.45,84.45,84.45,Clouds,scattered clouds,67,40,10.36
444,Carutapera,BR,2021-03-15 14:53:22,-1.195,-46.02,85.26,85.26,85.26,Rain,light rain,65,24,5.99
445,Celestun,MX,2021-03-15 14:53:22,20.8667,-90.4,79.5,79.5,79.5,Clear,clear sky,68,7,11.21
446,Kidal,ML,2021-03-15 14:53:23,18.4411,1.4078,95.09,95.09,95.09,Clear,clear sky,8,0,1.74
447,Vilhena,BR,2021-03-15 14:53:23,-12.7406,-60.1458,73.4,73.4,73.4,Clouds,broken clouds,94,75,10.36
448,Port Blair,IN,2021-03-15 14:53:23,11.6667,92.75,80.94,80.94,80.94,Clear,clear sky,78,0,7.27
449,Flinders,AU,2021-03-15 14:53:24,-34.5833,150.8552,56.32,54.0,57.99,Clear,clear sky,78,0,1.99
450,Leander,US,2021-03-15 14:52:59,30.5788,-97.8531,62.1,60.01,64.0,Clear,clear sky,39,1,6.91
451,Payo,ID,2021-03-15 14:53:24,-3.7508,103.6372,75.04,75.04,75.04,Clouds,overcast clouds,96,100,1.72
452,Yafran,LY,2021-03-15 14:53:25,32.0633,12.5286,55.4,55.4,55.4,Clouds,broken clouds,43,73,17.36
453,Aklavik,CA,2021-03-15 14:53:25,68.2191,-135.0107,-13.0,-13.0,-13.0,Clouds,overcast clouds,77,100,4.61
454,Mount Gambier,AU,2021-03-15 14:53:25,-37.8333,140.7667,57.2,57.2,57.2,Clouds,overcast clouds,94,90,6.91
455,Shirokiy,RU,2021-03-15 14:53:26,49.758,129.523,23.68,23.68,23.68,Snow,light snow,73,6,8.97
456,Shimoda,JP,2021-03-15 14:53:26,34.6667,138.95,55.98,55.98,55.98,Clouds,overcast clouds,66,100,10.22
457,Port Macquarie,AU,2021-03-15 14:53:26,-31.4333,152.9167,63.97,63.0,64.99,Clouds,overcast clouds,98,90,1.99
458,Marrakesh,MA,2021-03-15 14:53:27,31.6315,-8.0083,77.0,77.0,77.0,Clouds,scattered clouds,33,40,3.44
459,Hazorasp,UZ,2021-03-15 14:53:27,41.3194,61.0742,24.8,24.8,24.8,Clear,clear sky,68,0,4.61
460,Biltine,TD,2021-03-15 14:53:27,14.5333,20.9167,105.73,105.73,105.73,Clear,clear sky,5,0,7.72
461,Vanavara,RU,2021-03-15 14:53:28,60.34,102.2797,11.62,11.62,11.62,Clouds,overcast clouds,93,100,9.37
462,Galdar,ES,2021-03-15 14:53:28,28.147,-15.6502,69.75,66.99,71.6,Clouds,few clouds,56,20,26.46
463,Miles City,US,2021-03-15 14:53:28,46.4083,-105.8406,30.2,30.2,30.2,Clear,clear sky,80,1,9.22
464,Anloga,GH,2021-03-15 14:53:29,5.7947,0.8973,89.6,89.6,89.6,Clouds,few clouds,58,20,13.8
465,Barcelona,ES,2021-03-15 14:52:58,41.3888,2.159,61.07,57.99,64.99,Clear,clear sky,55,0,19.57
466,Lebanon,US,2021-03-15 14:48:30,36.2081,-86.2911,61.9,57.99,64.4,Clouds,overcast clouds,52,90,11.5
467,Port Hardy,CA,2021-03-15 14:50:00,50.6996,-127.4199,32.99,30.2,37.4,Clouds,few clouds,93,20,6.91
468,Wanning,CN,2021-03-15 14:53:29,18.8003,110.3967,71.67,71.67,71.67,Clear,clear sky,90,3,4.47
469,Aracati,BR,2021-03-15 14:53:30,-4.5617,-37.7697,87.44,87.44,87.44,Clouds,broken clouds,54,58,10.22
470,Lodwar,KE,2021-03-15 14:53:30,3.1191,35.5973,96.49,96.49,96.49,Clouds,few clouds,24,22,19.04
471,Gazanjyk,TM,2021-03-15 14:53:31,39.2446,55.5154,28.6,28.6,28.6,Clouds,scattered clouds,92,35,16.73
472,Rosarito,MX,2021-03-15 14:53:31,32.3333,-117.0333,51.78,50.0,53.6,Clouds,broken clouds,87,75,2.71
473,Killybegs,IE,2021-03-15 14:53:31,54.6333,-8.45,51.85,50.0,55.0,Clouds,overcast clouds,100,90,2.3
474,Mazamari,PE,2021-03-15 14:53:32,-11.3258,-74.5308,83.75,83.75,83.75,Clouds,overcast clouds,62,90,2.04
475,Riyadh,SA,2021-03-15 14:50:01,24.6877,46.7219,86.0,86.0,86.0,Dust,dust,9,11,17.27
476,Dawlatabad,AF,2021-03-15 14:53:32,36.4141,64.9053,45.28,45.28,45.28,Clear,clear sky,48,0,8.34
477,Sobolevo,RU,2021-03-15 14:53:32,54.4299,31.8996,34.92,34.92,34.92,Clouds,overcast clouds,86,100,4.9
478,Takoradi,GH,2021-03-15 14:53:33,4.8845,-1.7554,89.1,89.1,89.1,Clouds,overcast clouds,57,95,8.7
479,Kalaleh,IR,2021-03-15 14:53:33,37.3807,55.4916,48.2,48.2,48.2,Clouds,overcast clouds,71,90,4.61
480,Mount Isa,AU,2021-03-15 14:53:34,-20.7333,139.5,73.4,73.4,73.4,Clouds,overcast clouds,68,90,13.8
481,Netivot,IL,2021-03-15 14:53:34,31.4222,34.5886,65.59,63.0,69.01,Clear,clear sky,8,0,1.01
482,Rundu,NA,2021-03-15 14:53:35,-17.9333,19.7667,79.12,79.12,79.12,Clouds,overcast clouds,55,96,5.77
483,Camabatela,AO,2021-03-15 14:53:35,-8.1881,15.375,73.24,73.24,73.24,Rain,light rain,88,87,5.61
484,Ilhabela,BR,2021-03-15 14:53:36,-23.7781,-45.3581,81.19,81.19,81.19,Clouds,scattered clouds,77,27,5.1
485,Mangai,CD,2021-03-15 14:53:36,-4.05,19.5333,81.25,81.25,81.25,Rain,moderate rain,81,100,2.24
486,Farmington,US,2021-03-15 14:53:36,36.7281,-108.2187,33.51,32.0,35.01,Clear,clear sky,80,1,5.75
487,Popondetta,PG,2021-03-15 14:53:36,-8.7537,148.2534,73.69,73.69,73.69,Clouds,overcast clouds,95,99,2.91
488,Cayenne,GF,2021-03-15 14:53:37,4.9333,-52.3333,84.25,82.99,86.0,Clouds,few clouds,70,20,13.8
489,Svetlogorsk,BY,2021-03-15 14:53:37,52.6333,29.7333,37.9,37.9,37.9,Clouds,overcast clouds,81,100,3.24
490,Roebourne,AU,2021-03-15 14:53:38,-20.7833,117.1333,83.82,83.82,83.82,Clear,clear sky,65,3,2.93
491,Hit,IQ,2021-03-15 14:53:38,33.6416,42.8251,70.68,70.68,70.68,Clouds,overcast clouds,24,94,21.85
492,Giyani,ZA,2021-03-15 14:51:10,-23.3025,30.7187,85.71,85.71,85.71,Clear,clear sky,32,0,1.43
493,Sao Filipe,CV,2021-03-15 14:53:39,14.8961,-24.4956,73.78,73.78,73.78,Clear,clear sky,66,0,10.45
494,Mecca,SA,2021-03-15 14:51:01,21.4267,39.8261,90.03,90.03,90.03,Clear,clear sky,30,0,20.67
495,Callejones,HN,2021-03-15 14:53:39,15.1667,-88.65,70.7,66.2,78.8,Clouds,few clouds,94,20,0.31
496,Coquimbo,CL,2021-03-15 14:50:39,-29.9533,-71.3436,62.6,62.6,62.6,Clouds,overcast clouds,72,90,8.05
497,Kalnibolotskaya,RU,2021-03-15 14:53:40,46.0058,40.4568,42.42,42.42,42.42,Clouds,broken clouds,75,81,17.96
498,Nouadhibou,MR,2021-03-15 14:53:40,20.931,-17.0347,78.8,78.8,78.8,Clear,clear sky,50,0,12.66
499,Kushiro,JP,2021-03-15 14:53:40,42.975,144.3747,33.58,33.58,33.58,Clear,clear sky,75,0,3.76
500,Vaitape,PF,2021-03-15 14:53:41,-16.5167,-151.75,82.26,82.26,82.26,Clear,clear sky,77,1,13.15
501,Laguna,US,2021-03-15 14:53:41,38.421,-121.4238,37.62,37.0,37.99,Clear,clear sky,87,1,4.61
502,Coihaique,CL,2021-03-15 14:53:41,-45.5752,-72.0662,59.0,59.0,59.0,Clouds,broken clouds,63,75,4.61
503,Kaeo,NZ,2021-03-15 14:53:42,-35.1,173.7833,61.0,61.0,61.0,Clouds,broken clouds,93,62,1.99
504,Narsingi,IN,2021-03-15 14:53:42,18.0333,78.4333,81.63,80.6,82.99,Clear,clear sky,36,0,4.61
505,Butzow,DE,2021-03-15 14:53:42,53.85,11.9833,42.01,41.0,43.0,Drizzle,light intensity drizzle,87,75,10.36
506,Murray Bridge,AU,2021-03-15 14:53:43,-35.1167,139.2667,57.02,55.0,60.01,Clouds,broken clouds,90,55,5.26
507,Cabanas,CU,2021-03-15 14:53:43,22.9758,-82.9219,77.0,77.0,77.0,Clear,clear sky,73,0,11.5
508,Tomakivka,UA,2021-03-15 14:53:44,47.8157,34.7414,57.2,57.2,57.2,Clear,clear sky,33,0,8.95
509,Skjervoy,NO,2021-03-15 14:53:44,70.0311,20.9714,35.6,35.6,35.6,Rain,light rain,69,75,10.33
510,Srandakan,ID,2021-03-15 14:53:45,-7.9386,110.2506,78.75,78.75,78.75,Clouds,overcast clouds,77,100,0.74
511,Tarrafal,CV,2021-03-15 14:53:45,15.2833,-23.7667,82.4,82.4,82.4,Clear,clear sky,34,0,16.11
512,Chenzhou,CN,2021-03-15 14:53:45,25.8,113.0333,69.44,69.44,69.44,Clear,clear sky,81,2,5.59
513,Roald,NO,2021-03-15 14:53:46,62.5833,6.1333,36.09,34.0,37.4,Rain,light rain,87,75,9.22
514,The Pas,CA,2021-03-15 14:53:46,53.8251,-101.2541,28.4,28.4,28.4,Clouds,broken clouds,59,75,17.27
515,Sorland,NO,2021-03-15 14:53:46,67.667,12.6934,39.2,39.2,39.2,Clouds,scattered clouds,56,40,5.75
516,Olafsvik,IS,2021-03-15 14:53:47,64.8945,-23.7142,38.77,38.77,38.77,Rain,light rain,89,100,23.02
517,Mercedes,AR,2021-03-15 14:53:47,-34.6515,-59.4307,78.01,78.01,78.01,Rain,light rain,58,92,4.0
518,Mayumba,GA,2021-03-15 14:53:47,-3.432,10.6554,77.95,77.95,77.95,Clouds,overcast clouds,85,100,5.91
519,Tymovskoye,RU,2021-03-15 14:53:48,50.8456,142.655,28.15,28.15,28.15,Clear,clear sky,82,0,5.12
520,Kemijarvi,FI,2021-03-15 14:53:48,66.7131,27.4306,29.43,29.43,29.43,Clouds,overcast clouds,96,98,1.72
521,Ontario,US,2021-03-15 14:49:12,34.0633,-117.6509,48.52,46.0,50.0,Rain,light rain,81,90,4.61
522,Luchegorsk,RU,2021-03-15 14:53:49,46.4764,134.2569,35.94,35.94,35.94,Rain,light rain,95,100,9.64
523,Makasar,ID,2021-03-15 14:53:49,-5.14,119.4221,77.0,77.0,77.0,Clouds,few clouds,100,20,3.44
524,Camacupa,AO,2021-03-15 14:49:00,-12.0167,17.4833,76.24,76.24,76.24,Rain,moderate rain,72,88,4.52
525,Ballina,AU,2021-03-15 14:53:49,-28.8667,153.5667,68.86,64.99,73.4,Clouds,overcast clouds,60,90,17.27
526,Ust-Kuyga,RU,2021-03-15 14:53:50,70.0167,135.6,-13.02,-13.02,-13.02,Clouds,overcast clouds,93,100,16.67
527,Raahe,FI,2021-03-15 14:53:50,64.6833,24.4833,33.8,33.8,33.8,Clouds,overcast clouds,80,90,5.75
528,Thaba-Tseka,LS,2021-03-15 14:53:50,-29.522,28.6084,69.76,69.76,69.76,Clear,clear sky,32,4,11.92
529,Spolaita,GR,2021-03-15 14:53:51,38.6966,21.3464,37.15,25.0,51.8,Clouds,broken clouds,76,75,17.27
530,Constitucion,CL,2021-03-15 14:53:51,-35.3333,-72.4167,61.45,61.45,61.45,Clouds,overcast clouds,69,93,7.74
531,Karangasem,ID,2021-03-15 14:53:51,-8.45,115.6167,78.8,78.8,78.8,Clouds,scattered clouds,94,40,1.14
532,Sao Felix Do Xingu,BR,2021-03-15 14:53:52,-6.6447,-51.995,81.54,81.54,81.54,Clouds,broken clouds,89,77,0.13
533,Fort Wellington,GY,2021-03-15 14:53:52,6.4,-57.6,82.47,82.47,82.47,Rain,light rain,71,79,10.07
534,Ust-Omchug,RU,2021-03-15 14:53:52,61.15,149.6333,11.79,11.79,11.79,Snow,light snow,95,100,4.92
535,Kuching,MY,2021-03-15 14:53:53,1.55,110.3333,80.31,80.01,80.6,Clouds,scattered clouds,89,40,2.3
536,Anadyr,RU,2021-03-15 14:53:53,64.75,177.4833,-7.28,-7.6,-7.01,Clouds,few clouds,77,20,17.9
537,Usinsk,RU,2021-03-15 14:53:53,65.9939,57.5281,27.75,27.75,27.75,Clouds,overcast clouds,96,100,12.66
538,Acapulco,MX,2021-03-15 14:53:54,16.8634,-99.8901,75.2,75.2,75.2,Clouds,scattered clouds,83,40,8.05
539,Vadso,NO,2021-03-15 14:53:54,70.0744,29.7487,28.4,28.4,28.4,Snow,snow,93,75,19.57
540,Muzaffargarh,PK,2021-03-15 14:53:54,30.0754,71.1921,80.6,80.6,80.6,Smoke,smoke,57,75,7.65
541,Hervey Bay,AU,2021-03-15 14:53:55,-25.2986,152.8535,73.99,71.6,75.0,Clouds,overcast clouds,94,90,10.36
542,Saint-Joseph,RE,2021-03-15 14:53:55,-21.3667,55.6167,78.35,68.0,84.2,Clear,clear sky,61,0,6.91
543,Dakoro,NE,2021-03-15 14:53:55,14.5106,6.765,99.68,99.68,99.68,Clear,clear sky,10,0,4.97
544,Mazagao,BR,2021-03-15 14:53:56,-0.115,-51.2894,87.8,87.8,87.8,Clouds,broken clouds,70,75,6.91
545,Kuytun,RU,2021-03-15 14:53:56,54.3419,101.5036,6.85,6.85,6.85,Clouds,overcast clouds,92,100,1.66
546,Weyburn,CA,2021-03-15 14:52:16,49.6668,-103.8511,30.2,30.2,30.2,Clouds,overcast clouds,64,98,10.36
547,Great Bend,US,2021-03-15 14:53:56,38.3645,-98.7648,43.88,42.8,45.0,Clouds,broken clouds,100,75,6.91
548,Tucuman,AR,2021-03-15 14:51:30,-26.8241,-65.2226,75.2,75.2,75.2,Clouds,broken clouds,88,75,5.75
549,Ixtapa,MX,2021-03-15 14:53:57,20.7,-105.2,59.0,59.0,59.0,Clear,clear sky,94,1,4.61
550,Sinnamary,GF,2021-03-15 14:53:57,5.3833,-52.95,80.06,80.06,80.06,Clouds,overcast clouds,79,99,10.51
551,Sakakah,SA,2021-03-15 14:53:58,29.9697,40.2064,84.2,84.2,84.2,Clear,clear sky,12,4,4.61
552,Viedma,AR,2021-03-15 14:53:58,-40.8135,-62.9967,84.43,84.43,84.43,Clear,clear sky,33,5,14.43
553,Meulaboh,ID,2021-03-15 14:53:58,4.1363,96.1285,80.53,80.53,80.53,Clouds,overcast clouds,78,100,1.77
554,Sarangani,PH,2021-03-15 14:53:59,5.4033,125.4636,83.61,83.61,83.61,Clouds,scattered clouds,67,41,1.63
555,Radcliff,US,2021-03-15 14:53:59,37.8404,-85.9491,44.28,44.01,44.6,Rain,moderate rain,36,90,19.57
556,Ivybridge,GB,2021-03-15 14:53:59,50.3904,-3.9191,54.75,54.0,55.0,Clouds,overcast clouds,79,97,3.0
557,Takapau,NZ,2021-03-15 14:54:00,-40.0333,176.35,53.91,53.91,53.91,Clouds,few clouds,95,18,2.89
558,Mbini,GQ,2021-03-15 14:54:00,1.574,9.6134,83.52,83.52,83.52,Clouds,overcast clouds,68,100,7.9
559,Darfield,GB,2021-03-15 14:54:00,53.5339,-1.376,53.13,51.01,55.0,Clouds,broken clouds,61,68,5.01
560,Sirari,TZ,2021-03-15 14:54:01,-1.2333,34.4333,75.43,75.43,75.43,Clouds,overcast clouds,57,93,0.69
561,Ternate,ID,2021-03-15 14:54:01,0.8,127.4,81.5,81.5,81.5,Rain,light rain,78,12,5.59
562,San-Pedro,CI,2021-03-15 14:53:01,4.7485,-6.6363,84.94,84.94,84.94,Clouds,overcast clouds,65,99,5.5
563,Ewa Beach,US,2021-03-15 14:54:01,21.3156,-158.0072,65.61,60.8,68.0,Clear,clear sky,88,1,5.75
564,Nisia Floresta,BR,2021-03-15 14:54:02,-6.0911,-35.2086,86.0,86.0,86.0,Clouds,scattered clouds,62,40,13.8
565,Umm Lajj,SA,2021-03-15 14:54:02,25.0213,37.2685,77.61,77.61,77.61,Clouds,broken clouds,59,60,3.56
566,Akcakoca,TR,2021-03-15 14:54:02,41.0866,31.1162,58.23,58.23,58.23,Clouds,broken clouds,61,69,5.35
567,Dudinka,RU,2021-03-15 14:54:03,69.4058,86.1778,-31.5,-31.5,-31.5,Clouds,overcast clouds,95,88,1.95
568,Oyama,JP,2021-03-15 14:54:03,36.3,139.8,51.12,41.0,57.99,Clouds,few clouds,81,20,1.14
569,Evanston,US,2021-03-15 14:54:03,42.0411,-87.6901,32.65,32.0,33.8,Clouds,overcast clouds,47,90,20.71
570,Filingue,NE,2021-03-15 14:54:04,14.3521,3.3168,101.19,101.19,101.19,Clouds,overcast clouds,9,87,7.2
571,Marathon,US,2021-03-15 14:54:04,44.9,-89.7668,26.51,24.8,28.0,Clouds,broken clouds,68,75,11.5
572,Atar,MR,2021-03-15 14:54:04,20.5169,-13.0499,93.36,93.36,93.36,Clear,clear sky,8,0,5.44
573,Korla,CN,2021-03-15 14:54:05,41.7597,86.1469,51.71,51.71,51.71,Clear,clear sky,35,0,19.42
574,Nago,JP,2021-03-15 14:54:05,26.5881,127.9761,68.59,68.0,69.8,Clouds,broken clouds,68,75,4.61
575,Mizque,BO,2021-03-15 14:54:06,-17.941,-65.3402,66.31,66.31,66.31,Clouds,overcast clouds,70,100,4.59
576,Chinsali,ZM,2021-03-15 14:54:06,-10.5414,32.0816,74.14,74.14,74.14,Rain,light rain,82,15,3.87
577,Chelno-Vershiny,RU,2021-03-15 14:54:06,54.4333,51.1,15.13,15.13,15.13,Clouds,broken clouds,86,59,14.41
578,Muscat,OM,2021-03-15 14:51:11,23.6139,58.5922,78.8,78.8,78.8,Clear,clear sky,78,0,6.91
579,Ust-Maya,RU,2021-03-15 14:54:07,60.4167,134.5333,-4.94,-4.94,-4.94,Clouds,overcast clouds,95,98,4.18
580,Araouane,ML,2021-03-15 14:54:07,18.9048,-3.5265,91.62,91.62,91.62,Clear,clear sky,12,0,7.2
581,Christchurch,NZ,2021-03-15 14:54:07,-43.5333,172.6333,59.58,59.0,60.01,Clouds,overcast clouds,82,100,9.22
582,Marfino,RU,2021-03-15 14:54:08,55.7028,37.3822,36.09,35.6,37.0,Clouds,overcast clouds,93,90,8.95
583,Guerrero Negro,MX,2021-03-15 14:54:08,27.9769,-114.0611,54.99,54.99,54.99,Clouds,broken clouds,75,66,16.44
584,Tahta,EG,2021-03-15 14:54:08,26.7693,31.5021,81.64,78.8,84.2,Clear,clear sky,28,0,13.8
585,Sarakhs,IR,2021-03-15 14:54:09,36.5449,61.1577,42.8,42.8,42.8,Clouds,broken clouds,70,75,8.63
586,Sol-Iletsk,RU,2021-03-15 14:54:09,51.1631,54.9918,4.55,4.55,4.55,Clear,clear sky,87,0,6.26
587,Bose,IT,2021-03-15 14:54:09,45.4612,8.0137,58.66,55.0,61.0,Clear,clear sky,28,5,2.89
588,Bambui,BR,2021-03-15 14:54:10,-20.0064,-45.9769,78.64,78.64,78.64,Clouds,broken clouds,62,70,5.57
589,Thai Binh,VN,2021-03-15 14:54:10,20.45,106.3333,73.4,73.4,73.4,Clouds,broken clouds,94,75,5.75
590,Ananas,HT,2021-03-15 14:54:11,19.2466,-71.9557,77.0,77.0,77.0,Clouds,few clouds,57,20,5.75
591,Lingao,CN,2021-03-15 14:54:11,19.9103,109.6859,73.0,73.0,73.0,Rain,light rain,80,52,13.02
592,Chuchkovo,RU,2021-03-15 14:54:11,54.2693,41.4465,30.81,30.81,30.81,Snow,light snow,94,100,15.88
593,Lakes Entrance,AU,2021-03-15 14:54:12,-37.8811,147.981,60.01,60.01,60.01,Rain,light rain,84,90,5.06
594,Irbeyskoye,RU,2021-03-15 14:54:12,55.6428,95.4522,14.92,14.92,14.92,Clouds,overcast clouds,91,100,4.72
595,Koumac,NC,2021-03-15 14:54:12,-20.5667,164.2833,76.01,76.01,76.01,Clear,clear sky,83,0,3.24
596,Dodge City,US,2021-03-15 14:54:13,37.7528,-100.0171,44.31,42.8,46.0,Mist,mist,93,90,12.66
597,Rio Gallegos,AR,2021-03-15 14:53:36,-51.6226,-69.2181,59.0,59.0,59.0,Clouds,few clouds,47,20,28.77
598,Romitan,UZ,2021-03-15 14:54:13,39.9343,64.3814,35.6,35.6,35.6,Clear,clear sky,64,0,11.5
599,Camacari,BR,2021-03-15 14:54:13,-12.6975,-38.3242,84.2,84.2,84.2,Clouds,scattered clouds,61,40,11.5
600,Rosetta,EG,2021-03-15 14:51:25,31.4044,30.4164,66.2,66.2,66.2,Clouds,scattered clouds,63,40,8.05
601,Beyneu,KZ,2021-03-15 14:54:14,45.3167,55.2,32.83,32.83,32.83,Clear,clear sky,48,0,11.99
602,North Myrtle Beach,US,2021-03-15 14:54:14,33.816,-78.68,55.74,54.0,57.99,Clouds,broken clouds,33,75,12.66
603,Omsukchan,RU,2021-03-15 14:54:14,62.5333,155.8,1.4,1.4,1.4,Clouds,overcast clouds,87,100,7.85
604,Champerico,GT,2021-03-15 14:54:15,14.3,-91.9167,77.0,77.0,77.0,Clear,clear sky,78,1,10.36
605,Igarka,RU,2021-03-15 14:54:15,67.4667,86.5833,-10.73,-10.73,-10.73,Clouds,overcast clouds,88,100,5.79
606,Cairo,EG,2021-03-15 14:51:40,30.0626,31.2497,73.4,73.4,73.4,Clear,clear sky,49,0,10.36
607,Mackay,AU,2021-03-15 14:54:16,-21.15,149.2,72.82,72.0,73.4,Clouds,scattered clouds,88,27,5.75
608,Port Hedland,AU,2021-03-15 14:54:16,-20.3167,118.5667,82.4,82.4,82.4,Clouds,overcast clouds,78,100,4.61
609,Half Moon Bay,US,2021-03-15 14:54:16,37.4636,-122.4286,44.35,42.01,46.99,Haze,haze,71,75,27.63
610,Tukrah,LY,2021-03-15 14:54:17,32.5341,20.5791,59.74,59.74,59.74,Clouds,scattered clouds,68,50,22.75
611,Jurm,AF,2021-03-15 14:54:17,36.8648,70.8342,39.7,39.7,39.7,Clouds,overcast clouds,87,94,5.44
612,Junction City,US,2021-03-15 14:54:17,39.0286,-96.8314,50.04,48.2,52.0,Clouds,overcast clouds,87,90,9.22
613,Mezen,RU,2021-03-15 14:54:18,65.8522,44.24,28.47,28.47,28.47,Clouds,overcast clouds,95,100,3.87
614,Oxilithos,GR,2021-03-15 14:54:18,38.5833,24.1167,57.0,57.0,57.0,Clouds,scattered clouds,46,45,22.79
615,Osoyoos,CA,2021-03-15 14:54:18,49.0331,-119.4524,44.6,44.6,44.6,Clouds,overcast clouds,42,91,16.11
616,Morgan City,US,2021-03-15 14:54:19,29.6994,-91.2068,72.5,71.6,73.99,Clouds,broken clouds,94,75,10.36
617,Nanhai,CN,2021-03-15 14:54:19,30.1282,111.7784,62.01,62.01,62.01,Clouds,scattered clouds,94,26,6.87
618,Margate,GB,2021-03-15 14:54:19,51.3813,1.3862,51.13,50.0,52.0,Clouds,broken clouds,56,67,4.0
619,Madison,US,2021-03-15 14:51:55,34.7334,-86.5667,63.07,61.0,64.99,Clouds,overcast clouds,67,90,12.66
620,Jalor,IN,2021-03-15 14:54:20,25.35,72.6167,75.22,75.22,75.22,Clouds,few clouds,28,17,3.62
621,Ovsyanka,RU,2021-03-15 14:54:20,55.9575,92.5519,15.8,15.8,15.8,Clear,clear sky,53,0,8.95
622,Iquique,CL,2021-03-15 14:50:50,-20.2208,-70.1431,77.0,77.0,77.0,Clear,clear sky,50,0,14.97
623,Pangkalanbuun,ID,2021-03-15 14:54:21,-2.6833,111.6167,76.73,76.73,76.73,Clouds,broken clouds,90,79,1.34
624,Krasnoselkup,RU,2021-03-15 14:54:21,65.7,82.4667,17.56,17.56,17.56,Snow,light snow,95,100,8.57
625,Texarkana,US,2021-03-15 14:51:34,33.4251,-94.0477,51.8,51.8,51.8,Clouds,overcast clouds,93,90,6.91
626,Narasannapeta,IN,2021-03-15 14:51:04,18.4167,84.05,76.46,76.46,76.46,Clear,clear sky,84,0,2.75
627,Beatrice,US,2021-03-15 14:54:22,40.2681,-96.747,42.06,41.0,42.8,Mist,mist,100,90,11.5
628,Aitape,PG,2021-03-15 14:54:22,-3.1374,142.3475,77.99,77.99,77.99,Clouds,overcast clouds,88,100,4.38
629,Bijar,IR,2021-03-15 14:54:22,35.8668,47.6051,49.78,49.78,49.78,Clouds,overcast clouds,42,100,9.51
630,Husavik,IS,2021-03-15 14:54:21,66.0449,-17.3389,26.6,26.6,26.6,Clear,clear sky,80,0,6.91
631,Salinas,US,2021-03-15 14:54:23,36.6777,-121.6555,45.03,43.0,48.2,Clouds,few clouds,76,20,4.61
632,Caconda,AO,2021-03-15 14:54:23,-13.7333,15.0667,70.61,70.61,70.61,Rain,moderate rain,76,81,8.61
633,Brae,GB,2021-03-15 14:54:24,60.3964,-1.353,44.6,44.6,44.6,Clouds,scattered clouds,65,40,9.22
634,Garowe,SO,2021-03-15 14:54:24,8.4054,48.4845,84.22,84.22,84.22,Clouds,overcast clouds,39,100,21.07
635,Grindavik,IS,2021-03-15 14:54:24,63.8424,-22.4338,41.0,41.0,41.0,Rain,light rain,93,75,36.82
636,Hvide Sande,DK,2021-03-15 14:54:25,56.0045,8.1294,44.35,42.8,46.0,Clouds,scattered clouds,75,40,9.22
637,Sotouboua,TG,2021-03-15 14:54:25,8.5667,0.9833,99.41,99.41,99.41,Clouds,broken clouds,20,55,7.2
638,Praya,CV,2021-03-15 14:54:25,14.9215,-23.5087,82.4,82.4,82.4,Clear,clear sky,34,0,16.11
639,Flin Flon,CA,2021-03-15 14:54:26,54.7682,-101.865,26.6,26.6,26.6,Clouds,broken clouds,68,75,12.66
640,Nieuw Amsterdam,SR,2021-03-15 14:54:26,5.8833,-55.0833,85.24,82.4,88.0,Clouds,scattered clouds,74,40,6.91
641,Banjar,ID,2021-03-15 14:54:26,-8.19,114.9675,78.8,78.8,78.8,Clouds,scattered clouds,94,40,1.14
642,Palmer,US,2021-03-15 14:54:27,42.1584,-72.3287,18.57,16.0,23.0,Clouds,few clouds,32,20,18.41
643,Dickinson,US,2021-03-15 14:54:27,29.4608,-95.0513,66.72,66.0,68.0,Clouds,few clouds,95,13,4.59
644,Rosaryville,US,2021-03-15 14:54:27,38.7568,-76.8097,36.45,35.01,37.99,Clear,clear sky,25,1,13.8
645,Tabatinga,BR,2021-03-15 14:54:28,-4.2525,-69.9381,80.4,78.8,82.4,Clouds,broken clouds,83,75,6.91
646,Aswan,EG,2021-03-15 14:54:28,24.0934,32.907,95.02,95.02,95.02,Clouds,overcast clouds,6,100,9.44
647,Lubumbashi,CD,2021-03-15 14:54:28,-11.6609,27.4794,74.26,74.26,74.26,Rain,light rain,90,88,3.98
648,Khorixas,NA,2021-03-15 14:54:29,-20.3667,14.9667,84.67,84.67,84.67,Rain,light rain,41,98,7.56
649,Arrecife,ES,2021-03-15 14:54:29,28.963,-13.5477,66.2,66.2,66.2,Clouds,few clouds,82,20,16.11
650,Hirara,JP,2021-03-15 14:54:29,24.8,125.2833,70.3,70.3,70.3,Clouds,few clouds,78,16,16.04
651,Yamada,JP,2021-03-15 14:54:30,39.4667,141.95,39.79,39.79,39.79,Clear,clear sky,68,0,7.02
652,Charlestown,AU,2021-03-15 14:54:30,-32.95,151.6667,61.07,55.0,69.01,Clear,clear sky,80,0,5.39
653,Bluefields,NI,2021-03-15 14:52:15,12.0137,-83.7635,82.4,82.4,82.4,Clouds,scattered clouds,74,40,4.61
654,Dawson Creek,CA,2021-03-15 14:54:30,55.7666,-120.2362,3.2,3.2,3.2,Clear,clear sky,78,1,2.3
655,Schwedt,DE,2021-03-15 14:54:31,53.0596,14.2815,42.01,41.0,44.01,Clouds,overcast clouds,77,100,3.0
656,Erenhot,CN,2021-03-15 14:54:31,43.6475,111.9767,26.69,26.69,26.69,Clear,clear sky,22,0,4.05
657,Awbari,LY,2021-03-15 14:54:31,26.5921,12.7805,74.95,74.95,74.95,Clear,clear sky,25,0,13.15
658,Dori,BF,2021-03-15 14:54:32,14.0354,-0.0345,100.0,100.0,100.0,Clouds,scattered clouds,10,34,11.56
659,Tutoia,BR,2021-03-15 14:50:37,-2.7619,-42.2744,84.2,84.2,84.2,Clouds,scattered clouds,79,40,9.22
660,Rongcheng,CN,2021-03-15 14:54:32,30.634,117.8517,65.19,65.19,65.19,Rain,light rain,98,100,2.73
661,Plouzane,FR,2021-03-15 14:54:33,48.3833,-4.6167,55.4,55.4,55.4,Clouds,few clouds,71,20,14.97
662,Blythe,US,2021-03-15 14:54:33,33.6103,-114.5964,56.59,55.4,57.99,Clear,clear sky,54,1,8.05
663,Am Timan,TD,2021-03-15 14:54:33,11.0297,20.2827,103.21,103.21,103.21,Clouds,scattered clouds,15,41,3.78
664,Kosh-Agach,RU,2021-03-15 14:54:34,50.0,88.6667,9.19,9.19,9.19,Clouds,broken clouds,72,69,3.44
665,Kolyvan,RU,2021-03-15 14:54:34,55.3053,82.7391,10.4,10.4,10.4,Clear,clear sky,67,0,11.18
666,Knysna,ZA,2021-03-15 14:52:17,-34.0363,23.0471,60.8,60.8,60.8,Rain,light rain,94,90,3.44
667,Guadalupe Victoria,MX,2021-03-15 14:54:34,32.2869,-115.105,54.57,53.6,55.4,Clouds,broken clouds,66,75,4.65
668,Xam Nua,LA,2021-03-15 14:54:35,20.4197,104.0439,66.79,66.79,66.79,Clear,clear sky,78,2,2.8
669,Grandview,US,2021-03-15 14:54:35,38.8858,-94.533,46.06,46.0,46.4,Clouds,overcast clouds,100,90,11.5
670,Chicama,PE,2021-03-15 14:54:35,-7.8447,-79.1469,71.6,71.6,71.6,Fog,fog,94,40,4.61
671,Chapulhuacan,MX,2021-03-15 14:54:36,21.1667,-98.9,72.97,72.97,72.97,Clouds,scattered clouds,71,45,1.45
672,Izumo,JP,2021-03-15 14:54:36,35.3667,132.7667,46.4,46.4,46.4,Clouds,broken clouds,93,75,3.44
673,Saint Augustine,US,2021-03-15 14:49:46,29.8947,-81.3145,74.32,69.8,78.01,Clear,clear sky,73,1,4.41
674,Obigarm,TJ,2021-03-15 14:54:37,38.7173,69.7088,32.95,32.95,32.95,Clouds,scattered clouds,84,38,5.1
675,Qasigiannguit,GL,2021-03-15 14:54:37,68.8193,-51.1922,15.8,15.8,15.8,Clouds,broken clouds,57,75,8.05
676,Saint-Louis,SN,2021-03-15 14:54:38,16.3333,-15.0,99.01,99.01,99.01,Clear,clear sky,8,0,5.08
677,Crotone,IT,2021-03-15 14:54:38,39.0851,17.1178,53.6,53.6,53.6,Clouds,few clouds,47,20,11.5
678,Kralendijk,BQ,2021-03-15 14:54:38,12.15,-68.2667,82.4,82.4,82.4,Clouds,scattered clouds,74,40,13.8
679,Pangoa,PE,2021-03-15 14:54:39,-12.1167,-73.0,75.47,75.47,75.47,Rain,moderate rain,78,93,1.34
680,Roshchino,RU,2021-03-15 14:54:39,60.2519,29.6085,34.63,33.01,36.0,Snow,light snow,97,100,1.01
681,Lang Suan,TH,2021-03-15 14:54:39,9.9456,99.0785,77.04,77.04,77.04,Clouds,scattered clouds,87,45,5.53
682,Savannah,US,2021-03-15 14:53:23,32.0835,-81.0998,65.89,64.0,66.99,Clouds,scattered clouds,52,40,11.5
